location,formatted_address,latitude,longitude,Classified Area
"I CARE COMPUTER SYSTEM , HOUSE 41/2/E/3 , HARI CHARAN RAY ROAD , FARIDABAD , GENDARIA , DHAKA 1204",nan,,,Gendaria
"H 366/6, RD 6, BARIDHARA DOHS",Bangladesh,24.0,90.0,Baridhara
"NEW JANANI ENGINEERING WORKSHOP , NABI NAGAR HOUSING , MOHAMMADPUR","Mohammadpur, Bangladesh",23.7659,90.35851,Unknown
"G. PRASANTY , 10, ROAD 3 , MUKTI HOUSING , KALLYANPUR",Bangladesh,24.0,90.0,Kallyanpur
"AIRPORT ROAD , NEW AIRPORT ROAD, KURMITOLA N, SECTOR 2",Bangladesh,24.0,90.0,Unknown
north shyamoli,"Kallyanpur, Dhaka - 1916, Bangladesh",23.7784144,90.3654452,Shyamoli
dewanbag,"Babe Nur' Dewanbag Darbar Sharif 'বাবে নূর' দেওয়ানবাগ দরবার শরীফ, Airport Road, Rajshahi District, - 6203, Bangladesh",24.403494,88.6075937,Unknown
westy jatrabari,"Jātrābāri, Bangladesh",24.98797,90.90801,Jatrabari
shahjahanpur,"Shahjahanpur, Dhaka - 1217, Bangladesh",23.7407406,90.4240134,Shahjahanpur
sher e bangla nagar,"Sher-E-Bangla Nagar, Dhaka - 1207, Bangladesh",23.7741959,90.3754853,Sher E Bangla Nagar
new airport road,"New Airport Road, Khilkhet, Dhaka - 1229, Bangladesh",23.8398867,90.4172633,Khilkhet
new easkaton,Bangladesh,24.0,90.0,Unknown
kamalapur,"Kamalapur, Outer Circular Road, Dhaka - 1203, Bangladesh",23.7325123,90.4257424,Kamalapur
wari,"Wari, Dhaka - 1203, Bangladesh",23.7186574,90.4153989,Wari
ramna,"Ramna, Dhaka - 1000, Bangladesh",23.7398559,90.4022658,Ramna
sarkari karmachari hospital,Bangladesh,24.0,90.0,Unknown
mirpur - 2,"Mirpur, Dhaka - 1216, Bangladesh",23.8050427,90.3585246,Unknown
nandipara basabo,"Islami Bank Bangladesh Limited, Bashabo Branch, Bashabo-Madartek Road, Bashabo, Dhaka - 1214, Bangladesh",23.7403862,90.4326774,Bashabo
road to be named,Bangladesh,24.0,90.0,Unknown
basunmdhara r/a,Bangladesh,24.0,90.0,Unknown
shanta garden,Bangladesh,24.0,90.0,Unknown
shhajahanpur,Bangladesh,24.0,90.0,Unknown
kakrail,"Segunbagicha, Dhaka - 1000, Bangladesh",23.7385398,90.4071475,Kakrail
eska,Bangladesh,24.0,90.0,Unknown
rustampur,"Rustampur, Faridganj Upazila, Bangladesh",23.099416,90.7894818,Unknown
east tejturipara,Bangladesh,24.0,90.0,Unknown
middle basabo,"Bashabo, Dhaka - 1214, Bangladesh",23.7415414,90.4319335,Bashabo
namapara tetul tola,"Kola, Khulna Division, Bangladesh",23.65335,89.0933,Unknown
dakkhinpara,Bangladesh,24.0,90.0,Unknown
9th floor,"London ward, Nakuru West, Kenya",-0.2864982,36.0514231,Unknown
1361,"Dhaka District, - 1361, Bangladesh",23.7067441,90.4798084,Unknown
1000,"Dhaka District, - 1000, Bangladesh",23.7324204,90.406732,Unknown
1400,"Narayanganj District, - 1400, Bangladesh",23.6252806,90.4955204,Unknown
moghbazar,"Moghbazar-Mouchak Flyover, Shiddheswari, Dhaka - 1217, Bangladesh",23.7449296,90.4132248,Moghbazar
dhaka ( uttara  poshchim thanar samne ),"Dhaka Division, Bangladesh",24.16667,90.41667,Uttara
block j,"Bashundhara Residential Area, Dhaka - 1229, Bangladesh",23.8227827,90.4425682,Bashundhara
bhuiyan eastate,Bangladesh,24.0,90.0,Unknown
mirpur 2,"Mirpur, Dhaka - 1216, Bangladesh",23.8050427,90.3585246,Unknown
shamsur madrasa circle,Bangladesh,24.0,90.0,Unknown
south banasree project,"Bangladesh Krishi Bank, Dakhin Banasree Project Road, Madartek, Dhaka - 1214, Bangladesh",23.7447527,90.4427661,Banasree
shaheenbag,"Nakhalpara, Dhaka - 1208, Bangladesh",23.7727992,90.3929208,Unknown
naya paltan,"Noya Paltan, Dhaka - 1000, Bangladesh",23.7356527,90.4132052,Paltan
block d,"Banasree, Dhaka, Dhaka District, Bangladesh",23.7619434,90.4319378,Banasree
1702,"Gazipur District, - 1702, Bangladesh",24.0855436,90.3818567,Unknown
dokkhin monipur,"Manipur, Bangladesh",23.47172,91.0612,Unknown
sher-e-bangla-nagar,"Sher-E-Bangla Nagar, Dhaka - 1207, Bangladesh",23.7741959,90.3754853,Unknown
bay's lakewood,Bangladesh,24.0,90.0,Unknown
tejkunipara,"Tejgaon, Dhaka - 1215, Bangladesh",23.7618151,90.3924323,Tejgaon
hatirpool circle,Bangladesh,24.0,90.0,Hatirpool
panthapath,"Rajabazar, Dhaka - 1215, Bangladesh",23.7525464,90.3833456,Panthapath
gabtali,"Gabtali, গাবতলী উপজেলা, Bangladesh",24.8770229,89.4512705,Unknown
boorbagh,Bangladesh,24.0,90.0,Unknown
kuril gausia brtc ticket counter,Bangladesh,24.0,90.0,Kuril
chawkbazar,"Chawkbazar, Dhaka - 1310, Bangladesh",23.715323,90.3954354,Chawkbazar
keranigank subdistrict,Bangladesh,24.0,90.0,Unknown
sadarghat,"Sadar Ghat, Strand Road, Agrabad, Chattogram - 4000, Bangladesh",22.3247581,91.8308197,Sadarghat
block c,"Banasree, Dhaka, Dhaka District, Bangladesh",23.7622736,90.4294142,Banasree
mirpur`,"Mirpur, Kushtia District, Bangladesh",23.9363038,88.997764,Unknown
joar shahara,"Joar Shahara Bazar Road, Joar Sahara, Dhaka - 1229, Bangladesh",23.8133087,90.4184094,Joar Shahara
twenty twenty restaurant and party center,Bangladesh,24.0,90.0,Unknown
segunbagicha,"Segunbagicha, Dhaka - 1000, Bangladesh",23.7340321,90.4076745,Unknown
gulistan,"Gulistan, Dhaka - 1000, Bangladesh",23.7249037,90.4120785,Unknown
block e.banasree,"Banasree, Dhaka, Dhaka District, Bangladesh",23.7613593,90.4351191,Banasree
dhaka mawa highway,"Dhaka-Mawa Highway, Munshiganj District, Mawa - 1535, Bangladesh",23.4813191,90.2669091,Unknown
dilkusha,"Dilkusha, Dhaka - 1203, Bangladesh",23.7272736,90.4162497,Unknown
kuril,"Kuril, Dhaka - 1229, Bangladesh",23.8218203,90.4228833,Kuril
wireless niketon,Bangladesh,24.0,90.0,Unknown
narayanganj,"Narayanganj, Narayanganj Sadar Upazila, Bangladesh",23.6236732,90.4988075,Unknown
basher pool dogair bazar,"Bāzār, Rangpur Division, Bangladesh",25.74442,88.49186,Unknown
rani mohol boro vanga rd,Bangladesh,24.0,90.0,Unknown
pampura,Bangladesh,24.0,90.0,Unknown
monipuri para,"Tejgaon, Dhaka - 1215, Bangladesh",23.7616919,90.3859025,Tejgaon
purana paltan,"Purana Paltan Line, Noya Paltan, Dhaka - 1217, Bangladesh",23.7384749,90.411512,Paltan
panmthapath,Bangladesh,24.0,90.0,Unknown
tolerbag jame masjid,Bangladesh,24.0,90.0,Unknown
new eskaton,"Kawran Bazar, Dhaka - 1234, Bangladesh",23.7472147,90.3980307,Eskaton
sutrapur,"Gazipur District, Sutrapur - 1942, Bangladesh",24.0799224,90.1865732,Sutrapur
mirpur - 1,"Mirpur, Dhaka - 1216, Bangladesh",23.801924,90.3523456,Unknown
interlink technology,Bangladesh,24.0,90.0,Unknown
basundhara r /a,Bangladesh,24.0,90.0,Unknown
priyo prangon,Bangladesh,24.0,90.0,Unknown
dhanmondi foot over bridge,"Dhanmondi Govt. Boys' High Schoole Shahid Minar, Foot Over Bridge, Sobhanbag, Dhaka - 1207, Bangladesh",23.7573921,90.3749613,Dhanmondi
shobujbag,"Shobujbag Kacha Bazar Road, HaliShohor, Chattogram - 4216, Bangladesh",22.3397486,91.784815,Unknown
bhuiya estate,"Bhuiya Estate Road, Hazaribagh, Dhaka - 1312, Bangladesh",23.7301501,90.3625107,Hazaribagh
green model town,"Green Model Town, Dhaka - 1232, Bangladesh",23.7280141,90.4512815,Green Model Town
komlapur,"Komlapur Road, Jhenaidah District, -, Bangladesh",23.2811035,88.9653649,Unknown
nurer chala,"Nurer Chala, Dhaka - 1212, Bangladesh",23.7957069,90.4331606,Unknown
shonir akhra,"Shonir Akhra, Dhaka - 1236, Bangladesh",23.7036614,90.4508803,Unknown
mirpur dhaka 1216,"Bangladesh, Lane 1, Mirpur, Dhaka - 1216",23.8202931,90.3710408,Unknown
darus salam,"Mirpur, Dhaka - 1916, Bangladesh",23.7780349,90.3549041,Unknown
section  10,"Mikindani ward, 80102, Kenya",-4.0098851,39.6337402,Unknown
bashundhara,"Bashundhara, Chokjadu Road, Bogura District, Bogura - 5800, Bangladesh",24.8507256,89.3664267,Bashundhara
hashim tower,"Hashim Tower, 205/1 Tejgaon Gulshan Link Road, Niketan, Dhaka - 1208, Bangladesh",23.7715296,90.4115671,Gulshan
mirpur dohs house 710 road 10 avenued 3 flat 4 a,Bangladesh,24.0,90.0,Unknown
indira road farmngate,Bangladesh,24.0,90.0,Unknown
road 10 block d house 328 basundhara,Bangladesh,24.0,90.0,Unknown
monshurabad abashik area ada,Bangladesh,24.0,90.0,Unknown
west panthapath,"Rajabazar, Dhaka - 1215, Bangladesh",23.7525464,90.3833456,Panthapath
matikata,"Matikata, Dhaka - 1206, Bangladesh",23.8196962,90.3936832,Unknown
ahsaniya mission cancer and general hospital,Bangladesh,24.0,90.0,Unknown
chefs table court side,Bangladesh,24.0,90.0,Unknown
aftab nagar project badda,"Bādua, Dhaka Division, Bangladesh",24.34671,90.00523,Badda
nuvista pharma plant,Bangladesh,24.0,90.0,Unknown
hospital,"hospital, Hospital Road, Pabna District, Pabna - 6600, Bangladesh",24.0165756,89.2449658,Unknown
the buffet stories mirpur,"The Buffet Stories, Begum Rokeya Sharani, Mirpur, Dhaka - 1216, Bangladesh",23.8182006,90.3653145,Unknown
nilkhet,"Azimpur, Dhaka - 1205, Bangladesh",23.7329358,90.3860855,Azimpur
kotwali,"Kotwali Thana Road, Kandirpar, Cumilla - 3502, Bangladesh",23.4647456,91.1870087,Kotwali
sayedabad,"Sayedabad Wonderland, Saydabad, Dhaka, Dhaka District, Bangladesh",23.7152237,90.4248802,Sayedabad
mirpur 6,"Mirpur, Dhaka - 1216, Bangladesh",23.8108831,90.3643604,Unknown
house 36 road 7 uttora sector 13,Bangladesh,24.0,90.0,Unknown
kamalpur,"Kamalpur, Moulvibazar, Moulvibazar Sadar Upazila, Bangladesh",24.5396617,91.7329651,Unknown
savar,"Dhaka District, Savar - 1340, Bangladesh",23.8477,90.2587,Unknown
tejgaon thana health complex,Bangladesh,24.0,90.0,Tejgaon
road 109 gulshan 2,"Road 109, Gulshan, Dhaka - 1212, Bangladesh",23.791029,90.4172453,Gulshan
ad din medical college hospital,"Ad-Din Women's Medical college & Hospital, Jomidar Goli, Mogbazar, Dhaka - 1248, Bangladesh",23.7485032,90.4050678,Unknown
ibrahimpur,"Brahmanbaria District, Ibrahimpur - 3461, Bangladesh",23.8388035,90.9857133,Unknown
block  d,"Banasree, Dhaka, Dhaka District, Bangladesh",23.7619434,90.4319378,Banasree
reckitt benckiser official store tejgaon,"Tejgaon, Bangladesh",23.76296,90.38971,Tejgaon
east goran,"Goran, Dhaka - 1214, Bangladesh",23.7481983,90.4365253,Goran
new market,"New Market, Mirpur Road, Azimpur, Dhaka - 1205, Bangladesh",23.7332423,90.384369,New Market
paschim agargaon,Bangladesh,24.0,90.0,Agargaon
bardem hospital,"Bardem Hospital, Rankin Street, Wari, Dhaka - 1203, Bangladesh",23.7160002,90.4163756,Wari
darussalam rd,"Darussalam Ashiya Jame Masjid, Sharat Gupta Rd, Dhaka, Sharat Gupta Road, Narinda, Dhaka - 1203, Bangladesh",23.7104881,90.4231741,Darussalam
sel bari legacy,Bangladesh,24.0,90.0,Unknown
shah ali bagh,"Shah Ali Bagh, Dhaka - 1916, Bangladesh",23.7974702,90.3563554,Unknown
uttara bhaban 5/a . mirpur 1 dhaka 1216.,"Mīrpur, Dhaka Division, Bangladesh",23.99511,90.32359,Uttara
ananda food house,Bangladesh,24.0,90.0,Unknown
house 295/296,"house, Jamalpur, Jamalpur Sadar Upazila, Bangladesh",24.9207982,89.9626115,Unknown
arambagh,"Arambagh, Khulna - 9208, Bangladesh",22.8087008,89.5472595,Unknown
university of dhaka,"University of Dhaka, Unmesh Datta Road, Bokshibazar, Dhaka - 1211, Bangladesh",23.7312443,90.3915283,Unknown
dayaganj,"Dayaganj, Dhaka - 1204, Bangladesh",23.7104417,90.4246393,Dayaganj
utto,Bangladesh,24.0,90.0,Unknown
kalachandpur,"Gulshan, Dhaka - 1229, Bangladesh",23.8089642,90.4166054,Gulshan
shahbag  circle,Bangladesh,24.0,90.0,Unknown
banani  dohs,"DOHS Banani Park Football & Cricket Field, Gulshan, Dhaka, Dhaka District, Bangladesh",23.7926587,90.3983849,Banani
lalbag,"Lalbag, Dhaka - 1211, Bangladesh",23.7180752,90.3846389,Unknown
shumaiya 's place,Bangladesh,24.0,90.0,Unknown
hungry eyes food corner,Bangladesh,24.0,90.0,Unknown
kurmitola general hospital,"Kurmitola General Hospital, New Airport Road, Joar Sahara, Dhaka - 1229, Bangladesh",23.8192623,90.4097811,Unknown
jigatola,"Jigatola, Dhaka - 1209, Bangladesh",23.7390073,90.3710009,Jigatola
ashar alo lake view tower,Bangladesh,24.0,90.0,Unknown
tejgaon industrial area,"Tejgaon Industrial Area, Dhaka - 1208, Bangladesh",23.7648783,90.405798,Tejgaon
mintu rd,"Mintu Bepari Store, Padma Brg Rd, Naodoba, Mawa-Bhanga Expressway, Shariatpur District, Naodoba -, Bangladesh",23.4016742,90.2455978,Unknown
syed mahbub murshed ave,Bangladesh,24.0,90.0,Unknown
section 13,"Bangladesh Krishi Bank, Baraiyerhat-Joraganj Old Section Road, Chattogram District, Baraiyarhat - 3901, Bangladesh",22.8933377,91.5339391,Unknown
nawabpur,"Nawabpur, Dhaka - 1100, Bangladesh",23.7168771,90.4118102,Nawabpur
poshchim  kafrul,"Kāfrul, Bangladesh",23.78822,90.37359,Kafrul
road 9a,"Road 9A, Dhaka District, Dhaka - 1207, Bangladesh",23.7487665,90.3686708,Unknown
mohammadppur,Bangladesh,24.0,90.0,Unknown
tollabag dhaal,"Dhāal, Rājshāhi Division, Bangladesh",24.7204,88.52302,Unknown
noyatola,"Noyatola, Dhaka - 1248, Bangladesh",23.7562013,90.4101983,Unknown
riceman,Bangladesh,24.0,90.0,Unknown
vatara,"Nk Electric Office, vatara Vhatara 100 Ft Road, Baridhara, Dhaka - 1212, Bangladesh",23.7985609,90.4246369,Baridhara
dhakshin azampur,"Āzimpur, Bangladesh",22.85,91.5,Unknown
green rd farmgate,"Green Road, Panthopath, Dhaka - 1215, Bangladesh",23.754526,90.3887101,Unknown
north ibrahimpur,"Digital Mapping Center, Survey of Bangladesh, Mirpur 14 Rd, Ibrahimpur, Dhaka - 1206, Bangladesh",23.8040149,90.388397,Unknown
shantinagar,"Shantinagar, Dhaka - 1217, Bangladesh",23.7385358,90.4139156,Shantinagar
dokkhin  monipur,"Manipur, Bangladesh",23.47172,91.0612,Unknown
paschim monipur,"Manipur, Bangladesh",23.47172,91.0612,Unknown
siddhirganj,"Siddhirganj Power Plants, Narayanganj, Narayanganj Sadar Upazila, Bangladesh",23.6822747,90.5259623,Unknown
khigoan,Bangladesh,24.0,90.0,Unknown
diyabari,Bangladesh,24.0,90.0,Unknown
asundhara r/a,Bangladesh,24.0,90.0,Unknown
paschim  kafrul,"Kāfrul, Bangladesh",23.78822,90.37359,Kafrul
mirbag,"Noyatola, Dhaka - 1029, Bangladesh",23.7591437,90.4134432,Unknown
west rampura,"Rampura, Dhaka - 1029, Bangladesh",23.7623412,90.4174201,Rampura
east tejkunipara,"Japanese Universities Alumni Association in Bangladesh, East Rajabazaar, Rajabazar, Dhaka - 1215, Bangladesh",23.758096,90.3869381,Unknown
flat no b2,Bangladesh,24.0,90.0,Unknown
sonarang,"Tongibari - Sonarang - Betka Road, Munshiganj District, Tongibari Upazila - 1521, Bangladesh",23.5234194,90.461074,Unknown
basundhara,"Basundhara, 38 Rajani Chawdhury Road, Gendaria, Dhaka - 1204, Bangladesh",23.7044965,90.4217745,Gendaria
nikunja1,"Khilkhet, Dhaka - 1229, Bangladesh",23.8302567,90.4178733,Nikunja
dhanmo,Bangladesh,24.0,90.0,Unknown
west karwan bazar,"Bāzār, Rangpur Division, Bangladesh",25.74442,88.49186,Unknown
matikata mirpur ecb,Bangladesh,24.0,90.0,Unknown
delhi darbar mohakhali,Bangladesh,24.0,90.0,Mohakhali
sher  e  bangla nagar,"Sher-E-Bangla Nagar, Dhaka - 1207, Bangladesh",23.7741959,90.3754853,Unknown
niketon gulshan,"Road 1 Niketon Block A, Gulshan, Dhaka - 1213, Bangladesh",23.7766103,90.4125354,Gulshan
universal  international school,"Universal International School(ইউনিভার্সেল ইন্টারন্যাশনাল স্কুল), 10 7 number line, Mirpur, Dhaka - 1216, Bangladesh",23.8155956,90.3742657,Unknown
block g,"Green Model Town, Dhaka - 1360, Bangladesh",23.7297335,90.4565226,Green Model Town
keraniganj subdistrict,"Keraniganj Subdistrict, Bangladesh",23.6983432,90.3472708,Unknown
new air port rd,Bangladesh,24.0,90.0,Unknown
mohakhali bazar road,"Mohakhali Bazar Jame Masjid Road, Gulshan, Dhaka - 2467, Bangladesh",23.7800045,90.398989,Gulshan
miprur 1,Bangladesh,24.0,90.0,Unknown
lalbagh,"Lalbagh Fort, Kazi Riaz Uddin Road, Lalbag, Dhaka - 1211, Bangladesh",23.718843,90.3881528,Lalbagh
faridabad,"Faridabad, Dhaka - 1204, Bangladesh",23.6966383,90.4231544,Unknown
cantonment,"Cantonment, Cantonment Road, Rangpur District, Rangpur - 5401, Bangladesh",25.7606013,89.231221,Unknown
mirpur ecb,Bangladesh,24.0,90.0,Unknown
taqwa biryani house,Bangladesh,24.0,90.0,Unknown
mridus jail,Bangladesh,24.0,90.0,Unknown
dhaka -1000,"Dhaka, Dhaka District, Bangladesh",23.7643863,90.3890144,Unknown
shahjadpur bus stop,"Shahjadpur Bus Stop, Bir Uttam Rafiqul Islam Avenue, Gulshan, Dhaka - 1212, Bangladesh",23.7920887,90.4245009,Gulshan
shantibag,"Shantibag Road, Malibagh, Dhaka - 1217, Bangladesh",23.7447372,90.4164333,Malibagh
dhaka chittagong highway,"Dhaka-Chattogram Highway, Chattogram District, Sitakunda - 1352, Bangladesh",22.646881,91.6418983,Unknown
dhanmondi r /a,Bangladesh,24.0,90.0,Dhanmondi
tejgaon gulshan link rd,"Tejgaon Gulshan Link Road, Niketan, Dhaka - 1029, Bangladesh",23.7714526,90.4119188,Gulshan
west nakhalpara,"Nakhalpara, Dhaka - 1208, Bangladesh",23.7698495,90.3934246,Unknown
fulbaria,"Fulbaria, Gazipur District, Bangladesh",24.1892148,90.3087797,Fulbaria
basabo,"Bashabo, Dhaka - 1214, Bangladesh",23.7415414,90.4319335,Bashabo
secret recipe mohakhali,Bangladesh,24.0,90.0,Mohakhali
tikatuli,"Tikatuli, Dhaka - 1203, Bangladesh",23.7189757,90.424011,Tikatuli
south badda,"Gulshan, Dhaka - 1212, Bangladesh",23.7751646,90.4225629,Gulshan
89 sihrawardy avenue . road no. 11 baridhara,"Baridhara, Bangladesh",23.80254,90.42117,Baridhara
norshindi sadar . norshindi,Bangladesh,24.0,90.0,Unknown
airport rail station,Bangladesh,24.0,90.0,Unknown
bonosri e block,Bangladesh,24.0,90.0,Unknown
shahjadpur,"Shahjadpur, Dhaka - 1212, Bangladesh",23.7884856,90.4237741,Shahjadpur
mirpur-13,"Mirpur, Dhaka - 1216, Bangladesh",23.8064,90.3776496,Unknown
vip road,"Vip road, Bagerhat District, Bagerhat - 9300, Bangladesh",22.6527302,89.7901118,Unknown
paschim nakhalpara,"Paschim Raja Bazar Jame Masjid, 58 Raja Bazar- Indira Road, Shukrabad, Dhaka - 1215, Bangladesh",23.7550338,90.3813883,Unknown
donia,"Donia, Dhaka - 1236, Bangladesh",23.7026953,90.4447096,Donia
poschim kafrul,"Poschim Kafrul (Wakf) Jame Mosque, পরিসংখ্যান এভিনিউ, Agargaon, Dhaka - 1916, Bangladesh",23.7820308,90.378521,Kafrul
girls school road dhanmindi,Bangladesh,24.0,90.0,Unknown
dhaka 1209,"Dhaka, Dhaka District, Bangladesh",23.7643863,90.3890144,Unknown
mohammadour,Bangladesh,24.0,90.0,Unknown
islam pharma,"Islam Pharma, 102/12 Sadek Khan Road, Mohammadpur, Dhaka - 1207, Bangladesh",23.7516649,90.3617035,Unknown
west kafrul mirpur,"Bangladesh Space Research and Remote Sensing Organization (SPARRSO), Begum Rokeya Sharani, Kazipara, Dhaka - 1103, Bangladesh",23.7810493,90.3786973,Kafrul
west rajabazar,"Prime Minister's Office, Office Of The Prime Minister Bangladesh Bijoy Sharani, Tejgaon, Dhaka - 1212, Bangladesh",23.7683525,90.3918572,Tejgaon
kazipara,"Kazipara, Begum Rokeya Sharani, Dhaka - 1216, Bangladesh",23.7992408,90.3719878,Unknown
block i,"Bashundhara Residential Area, Dhaka - 1229, Bangladesh",23.8201676,90.4397267,Bashundhara
bangladesh bar council,"Bangladesh BAR Council, Maulana Bhasani Road, Segunbagicha, Dhaka - 1000, Bangladesh",23.7329672,90.4036785,Unknown
malibagh b,"Malibagh, Dhaka - 1217, Bangladesh",23.7464464,90.4159433,Malibagh
hashim toweer,Bangladesh,24.0,90.0,Unknown
mirpurr 12,Bangladesh,24.0,90.0,Unknown
mohanagar housing project,Bangladesh,24.0,90.0,Unknown
goran,"Goran, Dhaka - 1214, Bangladesh",23.747854,90.4336267,Goran
kulutola,"Sutrapur, Dhaka - 1204, Bangladesh",23.7064981,90.4188205,Sutrapur
gulshan avenue,"Bir Uttam Mir Shawkat Sarak (Gulshan Avenue), Gulshan, Dhaka - 1029, Bangladesh",23.7725828,90.4148568,Gulshan
nukunja 2,Bangladesh,24.0,90.0,Unknown
nobinagar 1340,"Dhaka District, Nobinagar - 1334, Bangladesh",23.9123657,90.2605169,Unknown
mirpur 2  main rd,"Scholastica Senior Campus Mirpur, 2/B, 2/C Main Road - 13, Mirpur, Dhaka - 1216, Bangladesh",23.8055923,90.3765748,Unknown
rayer bazar,"Rayer Bazar, Dhaka, Dhaka District, Bangladesh",23.7448424,90.3627337,Rayer Bazar
kpmlapur railway station dhaka,"Dhaka Division, Bangladesh",24.16667,90.41667,Unknown
shantinagar .,"Shantinagar, Dhaka - 1217, Bangladesh",23.7385358,90.4139156,Shantinagar
agargaon,"Agargaon, Begum Rokeya Sharani, Kazipara, Dhaka - 1216, Bangladesh",23.7784275,90.3800503,Agargaon
moinartek,Bangladesh,24.0,90.0,Unknown
sher  e bangla  nagar,"Sher-E-Bangla Nagar, Dhaka - 1207, Bangladesh",23.7741959,90.3754853,Unknown
dhaka mymensigh highway,"Dhaka - Mymensigh Highway, Uttara, - 1276, Bangladesh",23.8641564,90.3998921,Uttara
dhaka canmtonment,Bangladesh,24.0,90.0,Unknown
basundhara r/ a,Bangladesh,24.0,90.0,Unknown
pashchim kafrul,"Kafrul, Dhaka - 1103, Bangladesh",23.7853511,90.3774982,Kafrul
brb hospital,Bangladesh,24.0,90.0,Unknown
dhaka 1217,"Dhaka, Dhaka District, Bangladesh",23.7643863,90.3890144,Unknown
sector 10 uttara,"Uttara, Dhaka - 1231, Bangladesh",23.8823382,90.3893745,Uttara
dhaka .,"Dhaka, Dhaka District, Bangladesh",23.7643863,90.3890144,Unknown
shakhari bazar,"Islampur, Dhaka - 1100, Bangladesh",23.7101557,90.4088089,Islampur
tsc circle,Bangladesh,24.0,90.0,Unknown
mpinartek,Bangladesh,24.0,90.0,Unknown
uttara medicine,Bangladesh,24.0,90.0,Uttara
bharalia,"Bharalia, Keraniganj Subdistrict, Bangladesh",23.7147935,90.3519779,Unknown
paschim kafrul,"Kāfrul, Bangladesh",23.78822,90.37359,Kafrul
apt 7,"APT, Mirpur-1 Footover Bridge, Shah Ali Bagh, Dhaka - 1216, Bangladesh",23.7987347,90.3530841,Unknown
dohs basundhara,Bangladesh,24.0,90.0,Unknown
east rayer bazar,"Hatembag Road, East Rayer Bazar, Jigatola, Dhaka - 1209, Bangladesh",23.7429847,90.368355,Rayer Bazar
bakshi bazar,"Bokshi Bazaar Bus stop, Bakshi Bazar Road, Dhaka, Orphanage Road, Bokshibazar, Dhaka - 1211, Bangladesh",23.7225591,90.3955594,Bakshi Bazar
station rd,"Station Road, Talaimari, Rajshahi - 6204, Bangladesh",24.3684168,88.6244432,Unknown
tapout fitness,Bangladesh,24.0,90.0,Unknown
bashunmdhara r/a,Bangladesh,24.0,90.0,Unknown
bvaridhara,Bangladesh,24.0,90.0,Unknown
rd 2merul badda,"Bādua, Dhaka Division, Bangladesh",24.34671,90.00523,Badda
alfresco tejgaon,"Tejgaon, Bangladesh",23.76296,90.38971,Tejgaon
kawla bus stop kawla,"Kawla Rail Gate Bus stop, BRT Line 3, Dokkhin Khan, Dhaka - 1230, Bangladesh",23.8463381,90.4122209,Unknown
uttara model town,"Uttara, Dhaka - 1231, Bangladesh",23.8693275,90.3926893,Uttara
mugda para police station,Bangladesh,24.0,90.0,Mugda
sector 12,"China Bangladesh Friendship Exhibition Center, Dhaka City Bypass, Narayanganj District, Purbachal - 0000, Bangladesh",23.8426962,90.5338706,Unknown
north jatrabari,"Jatrabari, Dhaka - 1232, Bangladesh",23.712287,90.4343803,Jatrabari
gulshan 2 gulshan,"Embassy of Sweden, 2 Madani Avenue, Gulshan, Dhaka - 1212, Bangladesh",23.7962493,90.4176239,Gulshan
dhanmondi hoqurs market,Bangladesh,24.0,90.0,Dhanmondi
shajahanpur,"Shajahanpur Graveyard, Shahidbagh, Dhaka, Dhaka District, Bangladesh",23.7410145,90.421266,Shahidbagh
ghulshan,Bangladesh,24.0,90.0,Unknown
purbachal,"Narayanganj District, Purbachal - 0000, Bangladesh",23.8534224,90.5014224,Unknown
gulshan -1,"Gulshan, Dhaka - 1212, Bangladesh",23.780553,90.4169,Gulshan
basundhara road,"Basundhara, 38 Rajani Chawdhury Road, Gendaria, Dhaka - 1204, Bangladesh",23.7044965,90.4217745,Gendaria
gandaria,"Dayaganj, Dhaka, Dhaka District, Bangladesh",23.7060804,90.4263861,Dayaganj
kalachandpur main rd  kalachandpur,"Kalachandpur Main Road, Gulshan, Dhaka - 1229, Bangladesh",23.8078447,90.4185419,Gulshan
lake city rd,Bangladesh,24.0,90.0,Unknown
azampur uttara dhaka.dewanpara,"Bangladesh Petrolium Institute ( BPI), Officers Quarter Road, Azampur, - 1276, Bangladesh",23.8780212,90.4024462,Uttara
shoniakhra,Bangladesh,24.0,90.0,Unknown
sorwardi hospital,Bangladesh,24.0,90.0,Unknown
sukonna tower,Bangladesh,24.0,90.0,Unknown
bashtola foot over bridge,Bangladesh,24.0,90.0,Unknown
foodspire,Bangladesh,24.0,90.0,Unknown
dhaka 1207,"Dhaka, Dhaka District, Bangladesh",23.7643863,90.3890144,Unknown
shantinagar rd,"Shantinagar Road, Rajarbag, Dhaka - 1217, Bangladesh",23.7393386,90.4150796,Shantinagar
boro mogbazar,"TAJ Hotel Boro Moghbazar, Outer Circular Road, Mogbazar, Dhaka - 1217, Bangladesh",23.748598,90.404016,Moghbazar
vasantek,"Vasantek pocket gate, মূল সড়ক, Bhashantek, Dhaka - 1206, Bangladesh",23.8113817,90.3961485,Bhashantek
majumder's kemal atatruk avenue banani,Bangladesh,24.0,90.0,Banani
notun bazar,"Baridhara, Dhaka - 1212, Bangladesh",23.7982944,90.4239709,Baridhara
babu bazar,"Babu bazar, Dhaka - 1100, Bangladesh",23.7099344,90.402599,Babu Bazar
kathalbaria badda,"Bādua, Dhaka Division, Bangladesh",24.34671,90.00523,Badda
united international university campus,Bangladesh,24.0,90.0,Unknown
custom clearance br . new airport rd,"Sonali Bank, Custom Clearance Br, Airport Road New Airport Road, Dhaka District, - 1229, Bangladesh",23.8520633,90.4047291,Unknown
dhaka 1216 (helal diagonstic centre building ),"Dhaka Division, Bangladesh",24.16667,90.41667,Unknown
she e bangla nagar,"Nagar Chāchkia, Rājshāhi Division, Bangladesh",24.09326,89.34041,Unknown
aftabnagar,"Aftabnagar, Dhaka - 1214, Bangladesh",23.7657519,90.445198,Aftabnagar
monipuripara,Bangladesh,24.0,90.0,Unknown
south kamalapur,"Motijheel, Dhaka - 1203, Bangladesh",23.7265334,90.4246303,Kamalapur
adabar,"Adabar, Dhaka - 1916, Bangladesh",23.7745693,90.3552923,Unknown
shantos hq,Bangladesh,24.0,90.0,Unknown
dhaka uttar   s,"Dhaka-Chattogram Highway, Chattogram District, Chattogram - 4207, Bangladesh",22.3687404,91.778023,Unknown
dhanmondi 2,"Dhanmondi 2, Jigatola, Dhaka - 1209, Bangladesh",23.7387913,90.379543,Dhanmondi
nobinagar,"Dhaka District, Nobinagar - 1334, Bangladesh",23.9123657,90.2605169,Unknown
mirpur 14,"Mirpur, Dhaka - 1103, Bangladesh",23.7988425,90.3847119,Unknown
twenty 20 snacks,Bangladesh,24.0,90.0,Unknown
mirpur  road sher e bangla nagar,"Mirpur Road, Sobhanbag, Dhaka - 1207, Bangladesh",23.7612082,90.3724914,Sher E Bangla Nagar
dhaka 1205,"Dhaka, Dhaka District, Bangladesh",23.7643863,90.3890144,Unknown
sector 6,"Sector 6, Dhaka Metropolitan, Dhaka District, Bangladesh",23.8728058,90.4032722,Unknown
katabagan,Bangladesh,24.0,90.0,Unknown
arambag r/a pallabi,"Pallabi, Bangladesh",23.825,90.37,Unknown
mirpur 7,"Mirpur 7, Dhaka Metropolitan, Dhaka District, Bangladesh",23.819218,90.3631469,Unknown
bashunmdhara r /a,Bangladesh,24.0,90.0,Unknown
shiddhirganj,"Shiddhirganj, Narayanganj - 1430, Bangladesh",23.6886846,90.5101132,Unknown
mirpur 11.5,"Bangladesh Shishu Academy (Mirpur Branch)(বাংলাদেশ শিশু একাডেমী (মিরপুর শাখা)), ৫ 4, Mirpur 11, Dhaka - 1216, Bangladesh",23.8167491,90.3667949,Unknown
basdhundhara r /a,Bangladesh,24.0,90.0,Unknown
vagolpur hazaribag,"Hāzāribāg, Bangladesh",23.66603,90.44659,Unknown
tejgaon ind .area,"Tejgaon Industrial Area, Dhaka - 1208, Bangladesh",23.7648783,90.405798,Tejgaon
purbo arichpur,"Gazipur District, Tongi - 1711, Bangladesh",23.8885075,90.4054148,Unknown
nitol niloy tower nikunjo 2,Bangladesh,24.0,90.0,Unknown
162 post office road modhubajar dhanmondi 19,"Dhanmondi, Bangladesh",23.74,90.385,Dhanmondi
rupnagar,"Lalbag, Dhaka - 1211, Bangladesh",23.7153887,90.3777396,Unknown
bangla duar,Bangladesh,24.0,90.0,Unknown
100 ft,Bangladesh,24.0,90.0,Unknown
uttara dhaka,"Uttara, Dhaka - 1231, Bangladesh",23.8693275,90.3926893,Uttara
sher  e bangla nagar,"Sher-E-Bangla Nagar, Dhaka - 1207, Bangladesh",23.7741959,90.3754853,Unknown
middle bashabo,"Bashabo, Dhaka - 1214, Bangladesh",23.7415414,90.4319335,Bashabo
bashundhara 4/a,"Shoilo, Bashundhara City, Level 4, Block A, Shop 55, 56 Pantha Path, Panthopath, Dhaka - 1215, Bangladesh",23.7509903,90.3903274,Bashundhara
abdullagpur bus stop,Bangladesh,24.0,90.0,Unknown
west badda,"Bangladesh Television, Banasree-Hatirjheel U Loop, Rampura, Dhaka - 1219, Bangladesh",23.765714,90.4230068,Banasree
panch char,"Madaripur District, Panch Char - 7930, Bangladesh",23.378738,90.1666831,Unknown
suvastu kunjan,Bangladesh,24.0,90.0,Unknown
east maniknagar,"Maniknagar, Dhaka - 1203, Bangladesh",23.7236951,90.4367834,Maniknagar
mad chicken,Bangladesh,24.0,90.0,Unknown
south kafrul,"Kafrul, Dhaka - 1103, Bangladesh",23.7868826,90.3858237,Kafrul
bashundharab r/a,Bangladesh,24.0,90.0,Bashundhara
uttara azampur,"Civil Aviation Authority of Bangladesh (CAAB), Airport Road Dhaka Mymensigh Highway, Azampur, - 1229, Bangladesh",23.8534694,90.4052682,Uttara
hungry treat,Bangladesh,24.0,90.0,Unknown
block k,"Bashundhara Residential Area, Dhaka - 1229, Bangladesh",23.823084,90.4460936,Bashundhara
tejgao i/a,Bangladesh,24.0,90.0,Unknown
sanmar tower 2,"Sanmar Tower One, CDA Avenue, Nasirabad, Chattogram - 4209, Bangladesh",22.3630854,91.8216241,Unknown
purba goran,"Goran, Dhaka - 1214, Bangladesh",23.7481983,90.4365253,Goran
dakkhinkhan,Bangladesh,24.0,90.0,Dakkhinkhan
talertek rd,Bangladesh,24.0,90.0,Unknown
sector 5,"Narayanganj District, Kanchon - 1461, Bangladesh",23.8377768,90.5313504,Unknown
savar union,"Aruna Polli Rd, Savar Union, Dhaka District, Savar - 1345, Bangladesh",23.8709016,90.2816927,Unknown
shahid sarani dhaka cantonment,"Dhaka Cantonment, Bangladesh",23.82444,90.40556,Dhaka Cantonment
dhanmondi n,"Dhanmondi, Dhaka - 1209, Bangladesh",23.7479124,90.3745866,Dhanmondi
mohammadi housing  society mohammadpur,"Mohammadpur, Bangladesh",23.7659,90.35851,Unknown
narinda rd,"Narinda Road, Narinda, Dhaka - 1203, Bangladesh",23.7157988,90.4194191,Unknown
ishandi sarak,Bangladesh,24.0,90.0,Unknown
agamasi ln circle,Bangladesh,24.0,90.0,Unknown
technical mor,"Technical Mor, Dhaka-Mymensingh Highway, Mymensingh District, Mymensingh - 2200, Bangladesh",24.7385484,90.4072566,Unknown
sector 13,"Narayanganj District, Purbachal - 0000, Bangladesh",23.8421928,90.4806889,Unknown
dhanmondi 1209,"Dhanmondi, Dhaka - 1209, Bangladesh",23.7479124,90.3745866,Dhanmondi
probashi kallan and boideshik kormosonsthan montronalay,Bangladesh,24.0,90.0,Unknown
east shewrapara,"RSA Complex, 1359/1, East Shewrapara, Mirpur-Dhaka. Road 2, Shewrapara, Dhaka - 1216, Bangladesh",23.7921526,90.3777312,Unknown
kallayanpur,"Kallayanpur Khal, Dhaka, Dhaka District, Bangladesh",23.7771485,90.3620119,Unknown
west,"Bangladesh Television, Banasree-Hatirjheel U Loop, Rampura, Dhaka - 1219, Bangladesh",23.765714,90.4230068,Banasree
ific bank limited,"IFIC Bank Limited, N706, Jashore District, Benapole - 7431, Bangladesh",23.0445652,88.8996746,Unknown
bashjunmdhara r/a,Bangladesh,24.0,90.0,Unknown
khilkhet  bazar,"Bāzār, Rangpur Division, Bangladesh",25.74442,88.49186,Khilkhet
nuketan,Bangladesh,24.0,90.0,Unknown
dhaka medical colllege,Bangladesh,24.0,90.0,Unknown
bandar,"Narayanganj District, Bandar - 1410, Bangladesh",23.6169828,90.5127954,Unknown
catering service tehari ghar(sobhanbag),Bangladesh,24.0,90.0,Unknown
sangshad bhaban,"Chatro Sangshad Bhaban, Joypara - Nikra Road, Dhaka District, Dohar - 1330, Bangladesh",23.6181507,90.12167,Unknown
industrial area tejgaon,"Tejgaon Industrial Area, Dhaka - 1208, Bangladesh",23.7648783,90.405798,Tejgaon
sector 13 uttara,"Uttara, Dhaka - 1231, Bangladesh",23.8713405,90.3875569,Uttara
ahsania mission cancer and general hospital,Bangladesh,24.0,90.0,Unknown
kamrangirchar,"Kamrangirchar Model High School, Nursery road, Kamrangichor, Dhaka - 1211, Bangladesh",23.7134685,90.3672662,Unknown
masdair,"Purbo Masdair Playground, Sher-E-Bangla Road, Narayanganj District, Narayanganj - 1400, Bangladesh",23.6241043,90.4898473,Unknown
bosila,"Bosila, Dhaka - 1312, Bangladesh",23.7473392,90.345289,Unknown
sector,"China Bangladesh Friendship Exhibition Center, Dhaka City Bypass, Narayanganj District, Purbachal - 0000, Bangladesh",23.8426962,90.5338706,Unknown
sector 12 . uttara,"Uttara, Dhaka - 1231, Bangladesh",23.8716563,90.3815934,Uttara
uttara 1230. dhaka .,"Uttara, Dhaka - 1231, Bangladesh",23.8693275,90.3926893,Uttara
road 1 sector 1 block f house 28 aftabnagar,Bangladesh,24.0,90.0,Aftabnagar
sector 18,"Sector 18, Purbachal, Rupganj Upazila, Bangladesh",23.8520797,90.4996974,Unknown
kingdom habil complex,Bangladesh,24.0,90.0,Unknown
east rajabazar tejgaon,"Japanese Universities Alumni Association in Bangladesh, East Rajabazaar, Rajabazar, Dhaka - 1215, Bangladesh",23.758096,90.3869381,Tejgaon
block a,"Moyuri, Dumuria Upazila, Bangladesh",22.8085965,89.5276868,Unknown
shyambazar,"68 B K Das Road, Farashganj, Dhaka - 1100, Bangladesh",23.7027796,90.4152971,Unknown
golden rice,Bangladesh,24.0,90.0,Unknown
middle paikpara,"Paikpara, Dhaka - 1916, Bangladesh",23.7892825,90.3607154,Unknown
kotowali,"Amira Beauty Parlour, Alkoron Road, Kotowali, Chattogram, Huseyn Shaheed Suhrawardy Road, Chattogram District, Chattogram - 4000, Bangladesh",22.3316698,91.8343845,Unknown
bishaw road,"Sundorban Courier Service Pvt. Ltd., Bishaw Road Mor, Port Connecting Road, Noyabazar, Chattogram, Port Connecting Road, HaliShohor, Chattogram - 4202, Bangladesh",22.3449938,91.7874096,Unknown
dhanmondi 15 bus stand,Bangladesh,24.0,90.0,Dhanmondi
dhanmondi 32,"32 Laboratory road, Kathalbagan, Dhaka - 1205, Bangladesh",23.7380208,90.3859514,Dhanmondi
pashcim shewrapara,Bangladesh,24.0,90.0,Unknown
sector 9,"Uttara, Dhaka Metropolitan, Dhaka District, Bangladesh",23.8774447,90.3981802,Uttara
tt para,Bangladesh,24.0,90.0,Unknown
devconsultants limited ( devcon) .nikunja 2,Bangladesh,24.0,90.0,Nikunja
swamibag,"Dayaganj, Dhaka - 1203, Bangladesh",23.713396,90.4235859,Dayaganj
dhaka-1229,"1229, Bangladesh",23.8515,90.403,Unknown
dohs baridhara,"Joar Sahara, Dhaka, Dhaka District, Bangladesh",23.8131162,90.4131292,Baridhara
metal lal pathar,Bangladesh,24.0,90.0,Unknown
bon,Bangladesh,24.0,90.0,Unknown
mirpur dohs house  710 road 10 avenue 3 flat 4 a,Bangladesh,24.0,90.0,Unknown
habib convention center,"Habib Convention Center, N2, Mugrakul, Tarabo - 1460, Bangladesh",23.7407764,90.5256758,Unknown
banani dhaka,"Campus 2, AIUB (American International University Bangladesh), House 82/B Road 4, Gulshan, Dhaka - 1213, Bangladesh",23.7947055,90.4023902,Banani
sector - 13,"Narayanganj District, Purbachal - 0000, Bangladesh",23.8421928,90.4806889,Unknown
muk,"Naogaon Muk Badhir School, Par Naogaon, Naogaon, Naogaon, Naogaon District, Naogaon - 6500, Bangladesh",24.8084343,88.947417,Unknown
sector 11,"Uttara, Dhaka - 1231, Bangladesh",23.8773859,90.3904662,Uttara
mirpur sare 11,"Mirpur Original 10, Begum Rokeya Sharani, Mirpur, Dhaka - 1216, Bangladesh",23.8102909,90.3675265,Unknown
nitol niloy tower nikunja 2,Bangladesh,24.0,90.0,Nikunja
dhaka 1219,"Dhaka, Dhaka District, Bangladesh",23.7643863,90.3890144,Unknown
manikadi,"Manikdi, Dhaka - 1206, Bangladesh",23.8270857,90.3923784,Unknown
dakhin keraniganj,"Kerāniganj, Rājshāhi Division, Bangladesh",24.75003,88.07271,Unknown
dhaka 1208,"Dhaka, Dhaka District, Bangladesh",23.7643863,90.3890144,Unknown
sadarghat gabtali rd,Bangladesh,24.0,90.0,Sadarghat
taltola khilgaon,"Khilgaon, Dhaka - 1219, Bangladesh",23.7512986,90.4244569,Khilgaon
zafrabad mohammadpur,"Mohammadpur, Bangladesh",23.7659,90.35851,Unknown
mirpur 15,"Mirpur, Dhaka - 1206, Bangladesh",23.8055413,90.3832134,Unknown
1401,"Narayanganj District, - 1401, Bangladesh",23.6387988,90.476484,Unknown
star burger,Bangladesh,24.0,90.0,Unknown
muntasir rahman fahim,Bangladesh,24.0,90.0,Unknown
gulshan  2,"Gulshan, Dhaka - 1212, Bangladesh",23.7947191,90.4136986,Gulshan
ma enter uttara 8 no . sector,Bangladesh,24.0,90.0,Uttara
bangladesh bank colony,"Agrabad, Chattogram - 4233, Bangladesh",22.3246164,91.80366,Unknown
baruntek dhaka cantonment,"Dhaka Cantonment, Bangladesh",23.82444,90.40556,Dhaka Cantonment
natun bazar foot over bridge,Bangladesh,24.0,90.0,Unknown
avenue 2,"Avenue-2, Shah Ali Bagh, Dhaka - 1216, Bangladesh",23.8025577,90.3553839,Unknown
dholaikhal,"Narinda, Dhaka - 1100, Bangladesh",23.7102727,90.4172518,Unknown
jahangir nagar university,"Jahangir Nagar University, Bus stop, Dhaka - Aricha Highway, Dhaka District, - 1342, Bangladesh",23.880009,90.2730757,Unknown
east monipur,"PLC Bangladesh, 1012/1 Jamtola Mosjid Road, Shewrapara, Dhaka - 1206, Bangladesh",23.7940614,90.3754148,Unknown
popular hospital dhanmondi 2,"popular hospital, Dhanmondi 2, Jigatola, Dhaka - 1209, Bangladesh",23.7392113,90.3824483,Dhanmondi
kataban,"Kataban Road, Shahbag, Dhaka - 1205, Bangladesh",23.7357932,90.3889916,Unknown
house 6,"house, Jamalpur, Jamalpur Sadar Upazila, Bangladesh",24.9207982,89.9626115,Unknown
naibhog uttara,"Uttara, Bangladesh",23.8667,90.4,Uttara
burger shop dhanmondi,"Dhanmondi, Bangladesh",23.74,90.385,Dhanmondi
luxmibazar,"Luxmibazar Street Market, Municipal Street, Lakshmibazar, Dhaka - 1100, Bangladesh",23.7083641,90.4150807,Unknown
road 5a dhanmondi near medinova hospital,nan,,,Dhanmondi
agargaon mirpur,"SOS Childrens Villages Bangladesh, Non-governmental organization, Mirpur Road, Kallyanpur, Dhaka - 1207, Bangladesh",23.7740692,90.3669193,Agargaon
west dholaipar,"Dolairpar KinderGarden School, 64-B, West Dholaipar wazed ali street, Dholairpar, Dhaka - 1204, Bangladesh",23.6998006,90.4330674,Dholairpar
mukti housing dokkhin monipur,"Manipur, Bangladesh",23.47172,91.0612,Unknown
dhaka national medical college,"Dhaka National Medical College, Johnson Road, Nawabpur, Dhaka - 1100, Bangladesh",23.7112135,90.4126736,Nawabpur
saecvtion 6,Bangladesh,24.0,90.0,Unknown
shyampur,"Shyampur, Dhaka - 1236, Bangladesh",23.6855403,90.4394712,Shyampur
farashganj,"Farashganj, Dhaka - 1204, Bangladesh",23.7031127,90.4160782,Unknown
khaje dewan,"Bokshibazar, Dhaka - 1211, Bangladesh",23.7199584,90.3917252,Unknown
pllabi mirpur 12,"Mirpur, Bangladesh",23.805,90.366,Unknown
west dholairpar,"Dholairpar, Dhaka - 1232, Bangladesh",23.701102,90.4337691,Dholairpar
awamibag,Bangladesh,24.0,90.0,Unknown
1430,"Narayanganj District, - 1430, Bangladesh",23.6941882,90.5078083,Unknown
fatullah,"Fatullah, Narayanganj - 1401, Bangladesh",23.6503507,90.4757879,Unknown
bibir bagicha,"Bibir Bagicha No Road, Jatrabari, Dhaka - 1232, Bangladesh",23.7117679,90.4358914,Jatrabari
1229,"Dhaka District, - 1229, Bangladesh",23.8230862,90.4240933,Unknown
baitul aman chairmanbari jame masjid,Bangladesh,24.0,90.0,Unknown
kidney foundation hospital & research institute,"Bangladesh Kidney Foundation Hospital and Research Institute, Mirpur 10 Road, Borobagh, Dhaka - 1216, Bangladesh",23.8025848,90.3602833,Unknown
united house,Bangladesh,24.0,90.0,Unknown
south doriapur,Bangladesh,24.0,90.0,Unknown
paschim shewrapara,Bangladesh,24.0,90.0,Unknown
north shahjahanpur,"Shahjahanpur, Dhaka - 1217, Bangladesh",23.7438047,90.4247848,Shahjahanpur
dokkhin moniour,Bangladesh,24.0,90.0,Unknown
not in map,Bangladesh,24.0,90.0,Unknown
the sky traders pri. ltd,Bangladesh,24.0,90.0,Unknown
jahangirnagar university,"Jahangirnagar University, VC Lane, Bishmile, - 1342, Bangladesh",23.8821271,90.2669735,Unknown
matuail jatrabari,"Matuail Sub Post Office, Dhaka - Demra Highway, Kajla, Dhaka - 1362, Bangladesh",23.7126985,90.4525271,Jatrabari
monipur,"Chandpur District, Monipur - 3600, Bangladesh",23.1597459,90.6443257,Unknown
chashara,"uttor Chashara, Narayanganj District, Narayanganj - 1400, Bangladesh",23.6258395,90.5008939,Unknown
shingtola,"Sutrapur, Dhaka - 1204, Bangladesh",23.7067735,90.4167282,Sutrapur
sector 14,"Uttara, Dhaka - 1231, Bangladesh",23.8671966,90.3894678,Uttara
reckitt benckiser officical store jatrabari,"Jātrābāri, Bangladesh",24.98797,90.90801,Jatrabari
north kuril,Bangladesh,24.0,90.0,Kuril
sadaghat launch terminal,Bangladesh,24.0,90.0,Unknown
hazrat shahjalal,"Hazrat Shahjalal (R:) Jame Masjid, Dorgah Mohollah Road, Sylhet District, Sylhet - 3100, Bangladesh",24.9020721,91.8660181,Unknown
kafrul,"Kafrul, Dhaka - 1103, Bangladesh",23.7891719,90.3863131,Kafrul
shanto's hq,Bangladesh,24.0,90.0,Unknown
hatirjheel,Bangladesh,24.0,90.0,Unknown
crescent rd kalabagan,Bangladesh,24.0,90.0,Kalabagan
sector 3 uttara,"Uttara, Dhaka - 1276, Bangladesh",23.8641802,90.3961525,Uttara
fakieapool,Bangladesh,24.0,90.0,Unknown
namapara,"Matikata, Dhaka - 1206, Bangladesh",23.822198,90.3883658,Unknown
mohammadpurn,Bangladesh,24.0,90.0,Unknown
nurer,"Nurer Chala, Dhaka - 1212, Bangladesh",23.7957069,90.4331606,Unknown
south kafrul rd,"Kafrul, Dhaka - 1103, Bangladesh",23.7868826,90.3858237,Kafrul
shankar,"Dhanmondi, Dhaka - 1207, Bangladesh",23.7483109,90.3660743,Dhanmondi
hazrat shahjal international airport,Bangladesh,24.0,90.0,Unknown
raza bazar,"Raza Bazaar Road, Rajabazar, Dhaka - 1215, Bangladesh",23.7534735,90.3864399,Unknown
bashundgara r/a,Bangladesh,24.0,90.0,Unknown
shahjalal islami bank corporate head office,Bangladesh,24.0,90.0,Unknown
tejgaon  industrial area,"Tejgaon Industrial Area, Dhaka - 1208, Bangladesh",23.7648783,90.405798,Tejgaon
chowdhury para block c,Bangladesh,24.0,90.0,Unknown
sher e bangla tiger,Bangladesh,24.0,90.0,Unknown
burger freak,Bangladesh,24.0,90.0,Unknown
darus  salam,"Mirpur, Dhaka - 1916, Bangladesh",23.7780349,90.3549041,Unknown
shahjalal international airport domestic terminal,"Shahjalal International Airport Domestic Terminal, VVIP Terminal Entrance, Dhaka District, Dhaka - 1230, Bangladesh",23.8464912,90.4064532,Unknown
shankhari bazar rd,Bangladesh,24.0,90.0,Unknown
dhaka jatio chiriakhana,Bangladesh,24.0,90.0,Unknown
bsmmu,"Super Specialized Hospital, BSMMU, Kazi Nazrul Islam Avenue, Shahbag, Dhaka - 1234, Bangladesh",23.7405122,90.3952213,Unknown
airport dakshinkhan,Bangladesh,24.0,90.0,Unknown
sonargon hotel,Bangladesh,24.0,90.0,Unknown
madrasa rd 1340,"Madrasa Road, Puran Bazar, Chandpur - 3601, Bangladesh",23.2315157,90.64727,Unknown
monsurabad,"Adabar, Dhaka - 1916, Bangladesh",23.7750443,90.3513021,Unknown
the burgery,Bangladesh,24.0,90.0,Unknown
kamalapur railway station,"Kamalapur Railway Station, Outer Circular Road, Kamalapur, Dhaka - 1203, Bangladesh",23.7305398,90.4268579,Kamalapur
ramchandpur mohammadpur,"Mohammadpur, Bangladesh",23.7659,90.35851,Unknown
sher e bangla agricultural university rd,Bangladesh,24.0,90.0,Unknown
kurmitola sector 2,"Kurmitola, Dhaka - 1229, Bangladesh",23.8251851,90.4057949,Unknown
mohammmadpur,Bangladesh,24.0,90.0,Unknown
moddho para,"Adachaki Moddho Para Road, Sirajganj District, Vanggabari - 6740, Bangladesh",24.3222155,89.6719713,Unknown
mitford,"Mitford Road, Chawkbazar, Dhaka - 1100, Bangladesh",23.7147375,90.3971328,Chawkbazar
reghional passport office dhaka east,Bangladesh,24.0,90.0,Unknown
gendaria,"Gendaria, Dhaka - 1204, Bangladesh",23.7011711,90.4262398,Gendaria
malibaghj,Bangladesh,24.0,90.0,Malibagh
block f,"Banasree, Dhaka, Dhaka District, Bangladesh",23.7611583,90.4374109,Banasree
mohamadpur,Bangladesh,24.0,90.0,Unknown
ashkona,"Dokkhin Khan, Dhaka - 1230, Bangladesh",23.8517183,90.4188884,Unknown
kawla,"Dokkhin Khan, Dhaka - 1230, Bangladesh",23.8463633,90.4200063,Unknown
japan bangladesh friendship hospital,"Japan Bangladesh Friendship Hospital, Road 3A, Jigatola, Dhaka - 1209, Bangladesh",23.7394953,90.3750642,Jigatola
rd 1 mohammadpur,"M A Medicine Corner, 1 Ring Road, Adabar, Dhaka - 1207, Bangladesh",23.7736406,90.3608853,Unknown
tyejgaon,Bangladesh,24.0,90.0,Unknown
mirpur -1,"Mirpur, Dhaka - 1216, Bangladesh",23.801924,90.3523456,Unknown
sonargaon hotel,"Pan Pacific Sonargaon Hotel Dhaka, Kazi Nazrul Islam Avenue, Kawran Bazar, Dhaka - 1215, Bangladesh",23.7495727,90.3948725,Kawran Bazar
upazila rd.1340,"Dohar Upazila Office, Upzila Road, Dhaka District, Dohar - 1330, Bangladesh",23.6168896,90.1223336,Unknown
jurain,"Jurain, Dhaka - 1204, Bangladesh",23.6953714,90.4338889,Jurain
motaleb tower,Bangladesh,24.0,90.0,Unknown
telipara khilgaon,"Khilgaon, Bangladesh",23.75722,90.46443,Khilgaon
malibaghg,Bangladesh,24.0,90.0,Malibagh
agargaon panir tank,Bangladesh,24.0,90.0,Agargaon
united hospital,"United Hospital, plot 15 Road 71, Gulshan, Dhaka - 1212, Bangladesh",23.8048297,90.4156211,Gulshan
ohakhali,Bangladesh,24.0,90.0,Unknown
cheese please,Bangladesh,24.0,90.0,Unknown
gulshna,Bangladesh,24.0,90.0,Unknown
hazrat shah jalal international airport,"Hazrat Shah Jalal International Airport, New Airport Road, Dhaka District, Dhaka - 1230, Bangladesh",23.8478955,90.4052158,Unknown
chefs table courside,Bangladesh,24.0,90.0,Unknown
evercare hospital dhaka,"Evercare Hospital Dhaka, STS Avenue, Solmaid, Dhaka - 1229, Bangladesh",23.810247,90.4312047,Unknown
east basabo,"Bashabo, Dhaka - 1214, Bangladesh",23.7386028,90.4372316,Bashabo
north adabor,"স্বপ্ন টেলিকম এন্ড ইলেকট্রনিক্স, House No- 54/1, North Adabor Bazar Uttar Adabar Road, Adabar, Dhaka - 1916, Bangladesh",23.775024,90.3577652,Unknown
dohs mirpur,"Mirpur Cantonment, Dhaka - 1216, Bangladesh",23.8371883,90.3689834,Unknown
bashunddhara r/a,Bangladesh,24.0,90.0,Unknown
ring tech ( bangladesh ) ltd .,Bangladesh,24.0,90.0,Unknown
rd 29,"Road 29, Uttara, - 1276, Bangladesh",23.8720058,90.3983372,Uttara
dhaka chaka & gulshan chaka banani bus counter m kemal ataturk avenue,"Dhaka Chaka, Gulshan Ave, Gulshan, Dhaka - 1212, Bangladesh",23.793552,90.4149891,Banani
block f basundhara residential area,Bangladesh,24.0,90.0,Unknown
vatara rd,"Satarkul Vatara 1st Bridge, Bhatara, Dhaka - 1229, Bangladesh",23.7998305,90.4454849,Vatara
tajmahal road,"Tajmahal Road, Mohammadpur, Dhaka - 1207, Bangladesh",23.7633315,90.3622081,Unknown
nayatola,"Nayatola, Mogbazar, Dhaka - 1248, Bangladesh",23.755162,90.4066059,Unknown
bashundhara residential area .,"Bashundhara Residential Area, Dhaka - 1229, Bangladesh",23.8189265,90.4368229,Bashundhara
segun bagicha road,"Segun Bagicha Concord, 5 Segunbagicha Road, Segunbagicha, Dhaka - 1000, Bangladesh",23.7347782,90.4067844,Unknown
chowdhury para,"Chowdhury Para, Cox's Bazar District, Bangladesh",20.99767,92.2564494,Unknown
sher-e bangla - nagar,"Sher-E-Bangla Nagar, Dhaka - 1207, Bangladesh",23.7741959,90.3754853,Unknown
ring tech (bangladesh) ltd,Bangladesh,24.0,90.0,Unknown
north south university (nsu),Bangladesh,24.0,90.0,Unknown
jahangir gate,"Jahangir Gate Bus stop, Old Airport Road, Nakhalpara, Dhaka - 1215, Bangladesh",23.7752606,90.3897653,Unknown
central road dhanmondi,"Central Road, Kathalbagan, Dhaka - 1205, Bangladesh",23.7416633,90.3876413,Dhanmondi
old dhaka,"Old Dhaka-Tangail Road, Gazipur District, Kaliakair - 1750, Bangladesh",24.0692946,90.2174306,Unknown
pakulla,"Tangail District, Pakulla - 1945, Bangladesh",24.1414438,90.0201295,Unknown
shiddheswari road,"Stamford University Bangladesh, 51 Siddeshwari Road, Shiddheswari, Dhaka - 1217, Bangladesh",23.7444824,90.4083602,Wari
gul;shan 1,"Gul, Chandwad Taluka, India",20.2226036,74.2477902,Unknown
kumitola,Bangladesh,24.0,90.0,Unknown
7th floor,"London ward, Nakuru West, Kenya",-0.2864982,36.0514231,Unknown
north bashabo,"Bashabo, Dhaka - 1214, Bangladesh",23.7432489,90.4295,Bashabo
hazrat shahjalal international airport kurmitola,"Hazrat Shahjalal International Airport, Terminal-3, Airport Road New Airport Road, Khilkhet, Dhaka - 1229, Bangladesh",23.8416155,90.4101005,Khilkhet
tongi paurashava,Bangladesh,24.0,90.0,Unknown
demra,"Pabna District, Demra - 6650, Bangladesh",24.1392046,89.4733047,Unknown
turag,"Turag, Babupura, Shahbag, Dhaka - 1205, Bangladesh",23.7345451,90.3865593,Turag
block k baridhara dohs,Bangladesh,24.0,90.0,Baridhara
airport railway station,Bangladesh,24.0,90.0,Unknown
moghbazar rd,"TAJ Hotel Boro Moghbazar, Outer Circular Road, Mogbazar, Dhaka - 1217, Bangladesh",23.748598,90.404016,Moghbazar
house 317 road 21 mohakhali dohs,Bangladesh,24.0,90.0,Mohakhali
mirpur 9,"Mirpur, Dhaka - 1216, Bangladesh",23.8320555,90.3744432,Unknown
bijoy rakeen city building a8 tower 2,Bangladesh,24.0,90.0,Unknown
segunbagicha rd,"Bangladesh University of Engineering & Technology, Unmesh Datta Road, Bokshibazar, Dhaka - 1211, Bangladesh",23.7253034,90.3911721,Unknown
baitul aman chairman bari jame masjid,Bangladesh,24.0,90.0,Unknown
amlapara,"Sirajganj District, Sirajganj - 6700, Bangladesh",24.4657855,89.7181285,Unknown
honda st. tejkunipara,"Honda Sreet, Tejgaon, Dhaka - 1215, Bangladesh",23.7620913,90.39055,Tejgaon
100 feet road,"Purbachal 300 Feet Road, Narayanganj District, Kanchon - 1461, Bangladesh",23.8342036,90.5322973,Unknown
jatiyo grihayon kortripokkho,Bangladesh,24.0,90.0,Unknown
section,"Bangladesh Krishi Bank, Baraiyerhat-Joraganj Old Section Road, Chattogram District, Baraiyarhat - 3901, Bangladesh",22.8933377,91.5339391,Unknown
bivagio upo porichaloker karjaloy,Bangladesh,24.0,90.0,Unknown
bashundhara ra,Bangladesh,24.0,90.0,Bashundhara
dhanmondi 32 bus stop,"Dhanmondi 6A Bus stop, Satmasjid Road, Dhanmondi, Dhaka - 1209, Bangladesh",23.742265,90.3738997,Dhanmondi
sadarghat launch terminal,Bangladesh,24.0,90.0,Sadarghat
bnashundhara r/a,Bangladesh,24.0,90.0,Unknown
bimanbandar railway,Bangladesh,24.0,90.0,Unknown
uttara 11,"11, Uttara, Road 7/C - 1276, Bangladesh",23.8764435,90.4000554,Uttara
mirpur 12 bus stand,"Mirpur-12 Bus stand, Begum Rokeya Sharani, Mirpur, Dhaka - 1216, Bangladesh",23.8283207,90.3641049,Unknown
ishandi  sarak,Bangladesh,24.0,90.0,Unknown
jatio nursing uccho shikkha & gobeshona protistha,nan,,,Unknown
mohakhali dihs,Bangladesh,24.0,90.0,Mohakhali
bashudnhjara rf/a,Bangladesh,24.0,90.0,Unknown
premier school dhaka mirpur branch,Bangladesh,24.0,90.0,Unknown
diyabari uttara,"Uttara, Bangladesh",23.8667,90.4,Uttara
shekhertek,"Adabar, Dhaka - 1207, Bangladesh",23.7704607,90.3514987,Unknown
kurmitola sector 3,"Kurmitola, Dhaka - 1229, Bangladesh",23.8251851,90.4057949,Unknown
north kafrul,"Kafrul, Dhaka - 1103, Bangladesh",23.7920858,90.3851156,Kafrul
grey advertising banmgladesh ltd,Bangladesh,24.0,90.0,Unknown
baitul aman chairman bari jame mashjid,Bangladesh,24.0,90.0,Unknown
saector 15,Bangladesh,24.0,90.0,Unknown
ascent group,"Ascent Group Corporate, Madani Ave, Dhaka, Embasy Road, Gulshan, Dhaka - 1212, Bangladesh",23.7970835,90.4244428,Gulshan
14 dhanmondi r/a,Bangladesh,24.0,90.0,Dhanmondi
sector 15,"Gazipur District, - 0000, Bangladesh",23.8524767,90.4784787,Unknown
south basabo,"Bashabo, Dhaka - 1214, Bangladesh",23.7383875,90.4315063,Bashabo
west nandipara,"Nandipara, Dhaka - 1214, Bangladesh",23.7485,90.4444971,Nandipara
gulistan park,"Gulistan Park, Gulistan, Dhaka, Dhaka District, Bangladesh",23.7238986,90.4132822,Unknown
skyview lounge,Bangladesh,24.0,90.0,Unknown
ghulshan 2,Bangladesh,24.0,90.0,Unknown
comilla para,"Comilla Para Road, Gulshan, Dhaka - 1212, Bangladesh",23.7813898,90.4238333,Gulshan
foot over bridge,"Foot Over Bridge, Mohammadpur, Dhaka - 1207, Bangladesh",23.7570663,90.3748753,Unknown
demra staff quarter bus stop,Bangladesh,24.0,90.0,Unknown
dhaka railway station,"Dhaka Airport Railway Station, BRT Line 3, Dokkhin Khan, Dhaka - 1230, Bangladesh",23.8518203,90.4082315,Unknown
dpkkhin paikpara,"Pāikpāra, Chittagong, Bangladesh",22.28455,91.9809,Unknown
shangkar,Bangladesh,24.0,90.0,Unknown
jafrabad,"Chandpur District, Jafrabad - 3601, Bangladesh",23.2112514,90.6465604,Unknown
bonomala rd,"Bonomala Road, Cherag Ali, Tongi - 1712, Bangladesh",23.9110886,90.4028225,Unknown
darus salam.kallyanpur,"Mirpur, Dhaka - 1916, Bangladesh",23.7780349,90.3549041,Kallyanpur
lal fokir eer majar,Bangladesh,24.0,90.0,Unknown
house no 578,"house, Jamalpur, Jamalpur Sadar Upazila, Bangladesh",24.9207982,89.9626115,Unknown
toyenbee circular road,Bangladesh,24.0,90.0,Unknown
dhanbmondi r/a,Bangladesh,24.0,90.0,Unknown
amtoli mohakhali,"Amtoli Staff Welfare Government Primary School, Shahid Tajuddin Ahmad Avenue, Gulshan, Dhaka - 1208, Bangladesh",23.7755778,90.3992018,Gulshan
ayirport,Bangladesh,24.0,90.0,Unknown
wst dhanmondi,"Dhanmondi, Bangladesh",23.74,90.385,Dhanmondi
sector 4,"Dhaka District, - 1276, Bangladesh",23.8660802,90.4031924,Unknown
new airport rpad,Bangladesh,24.0,90.0,Unknown
bijoy rakeen city building ab tower 2,Bangladesh,24.0,90.0,Unknown
dakkhinpara mohakhali,Bangladesh,24.0,90.0,Mohakhali
doctor goli malibagh,Bangladesh,24.0,90.0,Malibagh
dhaka university,"Dhaka University, Kazi Nazrul Islam Avenue, Shahbag, Dhaka - 1000, Bangladesh",23.7316827,90.3968231,Unknown
boro moghbazar,"TAJ Hotel Boro Moghbazar, Outer Circular Road, Mogbazar, Dhaka - 1217, Bangladesh",23.748598,90.404016,Moghbazar
treat cafe & restaurant,"treat cafe, Sena Nikhom 1 Road, Chatuchak District, 10900, Thailand",13.8327154,100.5882565,Unknown
purana,"Purana Paltan Line, Noya Paltan, Dhaka - 1217, Bangladesh",23.7384749,90.411512,Paltan
moneshwar road,"Moneshwar Road, Jigatola, Dhaka - 1209, Bangladesh",23.7395486,90.3704652,Jigatola
fakirapool rd,"Fakirapool Road, Fakirapool, Dhaka - 1000, Bangladesh",23.7330071,90.4154405,Unknown
dilkusha rd.dilkusha,"Bangladesh Secretariat, Topkhana Road, Paltan, Dhaka - 1000, Bangladesh",23.7300126,90.4074836,Paltan
cantonmment,Bangladesh,24.0,90.0,Unknown
sabujbagb,Bangladesh,24.0,90.0,Unknown
3 food mirpur 1,"Mirpur Shopping Center Food Court, Mirpur 2 Road, Borobagh, Dhaka - 1216, Bangladesh",23.8046432,90.3633937,Unknown
maniik mia avenue,Bangladesh,24.0,90.0,Unknown
dhanmondi r/a b,Bangladesh,24.0,90.0,Dhanmondi
lamal shoroni,Bangladesh,24.0,90.0,Unknown
siddheswari road,"Siddheswari College, 25 Outer Circular Road, Shiddheswari, Dhaka - 1217, Bangladesh",23.7472609,90.4095883,Wari
gulshan-1,"Gulshan, Dhaka - 1212, Bangladesh",23.780553,90.4169,Gulshan
kallyanpur main rd,"Kallyanpur Main Road, Kallyanpur, Dhaka - 1916, Bangladesh",23.7798133,90.3609403,Kallyanpur
sir sayed rd university of dhaka,"Dhaka Division, Bangladesh",24.16667,90.41667,Unknown
modhu city,"Dhaka District, Ghatarchar - 1312, Bangladesh",23.7339077,90.3258603,Unknown
palpara,"Palpara, Khulna - 9202, Bangladesh",22.881251,89.5154691,Unknown
cangkhar pool,Bangladesh,24.0,90.0,Unknown
companion care clinic,Bangladesh,24.0,90.0,Unknown
chefs table,Bangladesh,24.0,90.0,Unknown
rupayan angel,Bangladesh,24.0,90.0,Unknown
mirpur zoo road,"Bangladesh Insulator and Sanitaryware Factory Ltd. (BISF), Zoo Road, Nobaberbag, Dhaka - 1216, Bangladesh",23.8094318,90.3514563,Unknown
dakkhin mugdapara,"Islami Bank Bangladesh Limited, Bashabo Branch, Bashabo-Madartek Road, Bashabo, Dhaka - 1214, Bangladesh",23.7403862,90.4326774,Bashabo
kamrangir char,"Kamrangir Char Beribadh, Lalbag, Dhaka - 1310, Bangladesh",23.7087981,90.3831264,Unknown
baridhara dohs ),"Joar Sahara, Dhaka, Dhaka District, Bangladesh",23.8131162,90.4131292,Baridhara
east kafrul,"Bangladesh Space Research and Remote Sensing Organization (SPARRSO), Begum Rokeya Sharani, Kazipara, Dhaka - 1103, Bangladesh",23.7810493,90.3786973,Kafrul
taltola,"Cumilla District, Taltola - 3623, Bangladesh",23.1421902,91.0338574,Unknown
north jurain,"Islami Bank Bangladesh Limited ATM, Dhaka-Mawa Expressway, Dholairpar, Dhaka - 1232, Bangladesh",23.7097246,90.434183,Dholairpar
bansaree,"Ruhama cottage, Bansaree Block-G Road 6, Banasree, Dhaka - 1219, Bangladesh",23.7597595,90.4393806,Banasree
uttara sector 10,"Dhaka-Ashulia Highway, Bhatulia, - 1711, Bangladesh",23.8842229,90.3950134,Uttara
regan,Bangladesh,24.0,90.0,Unknown
kachukhet dhaka cantonment,"Dhaka Cantonment, Bangladesh",23.82444,90.40556,Dhaka Cantonment
sekhertek,"Shaikhertek, Dhaka Division, Bangladesh",24.16899,90.76264,Unknown
sadar ghat,"Sadar Ghat, Ahsanullah Road, Babu bazar, Dhaka - 1100, Bangladesh",23.7058771,90.4092566,Babu Bazar
. east rayer bazar,"Hatembag Road, East Rayer Bazar, Jigatola, Dhaka - 1209, Bangladesh",23.7429847,90.368355,Rayer Bazar
south bishil,"Bishil, Dhaka - 1916, Bangladesh",23.7950566,90.3516303,Unknown
mohammadi housing society,Bangladesh,24.0,90.0,Unknown
west shewrapara mirpur,"722/1, West Shewrapara, Mirpur, Dhaka-1216., 722/1 Tomij Uddin Road, Shewrapara, Dhaka - 1216, Bangladesh",23.7919727,90.3740871,Unknown
chad uddan,Bangladesh,24.0,90.0,Unknown
mosjid a kawser giridhara saddam market,Bangladesh,24.0,90.0,Unknown
kawranbazar,"KawranBazar Road, Kawran Bazar, Dhaka - 1234, Bangladesh",23.7523076,90.3948217,Kawran Bazar
bashudnhara r/a,Bangladesh,24.0,90.0,Unknown
residential area dhanmondi,"Dhanmondi, Dhaka - 1205, Bangladesh",23.7470706,90.3757465,Dhanmondi
jatio grihayon kortripokkho,Bangladesh,24.0,90.0,Unknown
sheker tek,Bangladesh,24.0,90.0,Unknown
bashundhara residential area,"Bashundhara Residential Area, Dhaka - 1229, Bangladesh",23.8189265,90.4368229,Bashundhara
gachha,"Pukur gachha govt primary school, Z5202, Bogura District, Dupchachia - 5880, Bangladesh",24.9005251,89.1102553,Unknown
west dholaipur,Bangladesh,24.0,90.0,Unknown
west isdair,"Isdāir, Bangladesh",23.63513,90.49846,Unknown
100 gulshan avenue,"100 Bir Uttam Mir Shawkat Sarak, Gulshan, Dhaka - 1212, Bangladesh",23.7874066,90.4169864,Gulshan
north goran,"Goran, Dhaka - 1214, Bangladesh",23.7509383,90.43215,Goran
basati housing,"Shah Ali Bagh, Dhaka - 1216, Bangladesh",23.8003725,90.3603177,Unknown
araco diagonstic & dental clinic,nan,,,Unknown
ulon,Bangladesh,24.0,90.0,Unknown
1421,"Narayanganj District, - 1421, Bangladesh",23.6674447,90.4722543,Unknown
mirpur -6,"Mirpur, Dhaka - 1216, Bangladesh",23.8108831,90.3643604,Unknown
uttara sector 11 no park,Bangladesh,24.0,90.0,Uttara
market,"Market, Bridge, Barguna District, -, Bangladesh",21.9348574,90.0657356,Unknown
sabujbagh,"Sabujbagh Road, Moulvibazar District, Sreemangal - 3210, Bangladesh",24.3086883,91.7211092,Sabujbagh
1346,"1346, Bangladesh",24.3137,89.6089,Unknown
sheikh hasina national institute of burn and plastic surgery,Bangladesh,24.0,90.0,Unknown
hazrat shahjalal antorjatik,Bangladesh,24.0,90.0,Unknown
shewrapara,"Shewrapara, Begum Rokeya Sharani, Dhaka - 1216, Bangladesh",23.7909631,90.3755087,Unknown
borobag,"Uttar Khan, Dhaka - 1276, Bangladesh",23.8805636,90.4260831,Unknown
secvtor 3,Bangladesh,24.0,90.0,Unknown
west kawran bazar,"Bangladesh University of Textiles, Shahid Tajuddin Ahmad Avenue, Tejgaon Industrial Area, Dhaka - 1208, Bangladesh",23.7601664,90.401985,Kawran Bazar
meena click shantinagar,Bangladesh,24.0,90.0,Shantinagar
west agargaon,"Agargaon, Dhaka - 1916, Bangladesh",23.7812337,90.3689456,Agargaon
shekher tek,Bangladesh,24.0,90.0,Unknown
house 30 road 17 sector 11 uttara,"Uttara, Bangladesh",23.8667,90.4,Uttara
west  dholaipur,Bangladesh,24.0,90.0,Unknown
shilpo l,Bangladesh,24.0,90.0,Unknown
unicafe restaurant & fun panthapath,nan,,,Panthapath
shahbag chattar,Bangladesh,24.0,90.0,Unknown
narayanganj.1400,"Narayanganj, Narayanganj Sadar Upazila, Bangladesh",23.6236732,90.4988075,Unknown
bashabo,"Bashabo, Dhaka - 1214, Bangladesh",23.7405474,90.4333478,Bashabo
west arichpur,Bangladesh,24.0,90.0,Unknown
dhakhin khan hydrabad rd,Bangladesh,24.0,90.0,Unknown
hatirjhil,"Hatirjhil Project Army Camp, Hatirjheel Link Road, Noyatola, Dhaka - 1029, Bangladesh",23.7628942,90.4117049,Unknown
uttar,"Uttar, Barisal Division, Bangladesh",22.3234,89.89999,Unknown
puirbachal,Bangladesh,24.0,90.0,Unknown
dhanmondi 32 house no 21 house name syvandale sonnet flat no a2,nan,,,Dhanmondi
mirpur `,"Mirpur, Kushtia District, Bangladesh",23.9363038,88.997764,Unknown
pizza arabian night,Bangladesh,24.0,90.0,Unknown
shantnagar,Bangladesh,24.0,90.0,Unknown
alke circus road kalabagan,Bangladesh,24.0,90.0,Kalabagan
kurmitola sector 4,"Kurmitola, Dhaka - 1229, Bangladesh",23.8251851,90.4057949,Unknown
dhakeshwari road,"Dhakeshwari National Temple, Orphanage Road, Bokshibazar, Dhaka - 1211, Bangladesh",23.7229587,90.3902478,Wari
basundha r/a,Bangladesh,24.0,90.0,Unknown
tejgaon indra,"Indra, Khulna Division, Bangladesh",23.23837,89.34725,Tejgaon
kllyanpur,Bangladesh,24.0,90.0,Unknown
mpohammadpur,Bangladesh,24.0,90.0,Unknown
block k baridhara,"Baridhara, Bangladesh",23.80254,90.42117,Baridhara
meradia,"South Banasree, Dhaka - 1214, Bangladesh",23.754935,90.4362485,Banasree
lal fokir er majar,Bangladesh,24.0,90.0,Unknown
block b bashundhara r/a,Bangladesh,24.0,90.0,Bashundhara
dhanmondi en road,Bangladesh,24.0,90.0,Dhanmondi
sector 5 uttara,"Uttara, Dhaka - 1231, Bangladesh",23.8634958,90.3903093,Uttara
uttor kafrul purba kazipara,"Digital Mapping Center, Survey of Bangladesh, Mirpur 14 Rd, Ibrahimpur, Dhaka - 1206, Bangladesh",23.8040149,90.388397,Kafrul
bangshal,"Bangshal, Bangladesh",23.71558,90.40628,Bangshal
block d bashundhara r/a,"Bashundhara Residential Area, Dhaka, Dhaka District, Bangladesh",23.8163715,90.4332023,Bashundhara
adarsha nagar badda,"Ananda Nagar Adarsha Uccho Bidyaloy, Boithakhali Road, Badda, Dhaka - 1219, Bangladesh",23.7712948,90.4315889,Badda
senpara parbata borobagh,"Senpara Parbata, Borobagh, Dhaka - 1216, Bangladesh",23.806478,90.3693146,Unknown
sayedabadf,Bangladesh,24.0,90.0,Sayedabad
"shahjalal international airport
domestic terminal",Bangladesh,24.0,90.0,Unknown
universal medical college & hospital,"Universal Medical College Hospital, 74G/75 New Airport Road, Gulshan, Dhaka - 2467, Bangladesh",23.7766326,90.3953894,Gulshan
khilghaon,Bangladesh,24.0,90.0,Unknown
narayanganj 1400,"Narayanganj, Narayanganj Sadar Upazila, Bangladesh",23.6236732,90.4988075,Unknown
shahbagh ramna,"Shahbagh, Kazi Nazrul Islam Avenue, Shahbag, Dhaka - 1234, Bangladesh",23.7400837,90.3960061,Ramna
west jatrabari,"Jatrabari, Dhaka - 1232, Bangladesh",23.7068154,90.4312582,Jatrabari
madani ave,"Madani Avenue, Beraid, Dhaka - 1229, Bangladesh",23.8014942,90.4578719,Beraid
new  baily rd,"New Baily Road, Shiddheswari, Dhaka - 1217, Bangladesh",23.7418291,90.4096084,Wari
public toilet-2 kamalapur,"Kamalapur, Bangladesh",23.73723,90.42533,Kamalapur
malitola,"Nawabpur, Dhaka - 1100, Bangladesh",23.7150022,90.4100405,Nawabpur
pilkhana,"Pilkhana, Dhaka - 1209, Bangladesh",23.7317491,90.3757956,Pilkhana
segunbagicha road,"Segunbagicha Road, Segunbagicha, Dhaka - 1000, Bangladesh",23.7335425,90.406452,Unknown
south shajahanpur,"Shajahanpur, Bangladesh",24.76667,89.4,Unknown
darus salam road,"Darus Salam Road, Tolarbag, Dhaka - 1916, Bangladesh",23.789707,90.353939,Unknown
shyamoli mohammadpur,"Bangladesh Blood Bank & Transfusion Centre, 22/12 Mirpur Road, Mohammadpur, Dhaka - 1207, Bangladesh",23.7727326,90.3671203,Shyamoli
praava health,Bangladesh,24.0,90.0,Unknown
bihari camp bazar,"Mohammadpur, Dhaka, Dhaka District, Bangladesh",23.767264,90.3654955,Unknown
shajadpur,Bangladesh,24.0,90.0,Unknown
jahangirnagar university bus station,Bangladesh,24.0,90.0,Unknown
block h,"Bashundhara Residential Area, Dhaka - 1229, Bangladesh",23.8247315,90.4395496,Bashundhara
arichpur,"Gazipur District, Tongi - 1711, Bangladesh",23.8885075,90.4054148,Unknown
khilkhet bazar,"Bāzār, Rangpur Division, Bangladesh",25.74442,88.49186,Khilkhet
1500,"Munshiganj District, - 1500, Bangladesh",23.4765391,90.5272349,Unknown
baitus salat kuweti mosque,Bangladesh,24.0,90.0,Unknown
madartek,"Madartek, Dhaka - 1214, Bangladesh",23.7431008,90.4399835,Madartek
karnafuli government quarter,Bangladesh,24.0,90.0,Unknown
shaymoli,"Shaymoli bus counter, Dhaka - Chittagong Hwy, Chittagong, Dhaka-Chattogram Highway, Chattogram District, Mirsharai -, Bangladesh",22.7209791,91.6035479,Unknown
sher-e-bangla nagar,"Sher-E-Bangla Nagar, Dhaka - 1207, Bangladesh",23.7741959,90.3754853,Unknown
matuail jatra,Bangladesh,24.0,90.0,Unknown
bank colony,"Bank Colony, Mugda, Dhaka - 1203, Bangladesh",23.7275778,90.4343815,Mugda
dabor,"Dabor Bus Stop, Sunamganj-Sylhet Highway, Sunamganj District, -, Bangladesh",24.9234732,91.4624691,Unknown
sant,Bangladesh,24.0,90.0,Unknown
katasur,"Mohammadpur, Dhaka - 1207, Bangladesh",23.7552398,90.3580927,Unknown
south kallyanpur,"Islami Bank Bangladesh LTD, Shovon Sarani, Pirerbag, Dhaka - 1916, Bangladesh",23.7862353,90.367022,Kallyanpur
basdhundhara r/a,Bangladesh,24.0,90.0,Unknown
shiddeshwari road,"Shiddeshwari Girls High School, 30 New Baily Road, Shiddheswari, Dhaka - 1217, Bangladesh",23.7422469,90.411242,Wari
farmgate tejgaon,"Prime Minister's Office, Office Of The Prime Minister Bangladesh Bijoy Sharani, Tejgaon, Dhaka - 1212, Bangladesh",23.7683525,90.3918572,Tejgaon
beribadh,Bangladesh,24.0,90.0,Unknown
iut tree park,Bangladesh,24.0,90.0,Unknown
allahr daan khabar hotel and restaurant,Bangladesh,24.0,90.0,Unknown
adamzee cantonment public school khelar math,Bangladesh,24.0,90.0,Unknown
rhymes residence,Bangladesh,24.0,90.0,Unknown
bhataliya uttara,"Dhaka-Ashulia Highway, Bhatulia, - 1711, Bangladesh",23.8842229,90.3950134,Uttara
road 109 floor 6th,"Road 109, Gulshan, Dhaka - 1212, Bangladesh",23.791029,90.4172453,Gulshan
executive machine limited,Bangladesh,24.0,90.0,Unknown
hal roktokorobi mirpur 3,"Mirpur, Bangladesh",23.805,90.366,Unknown
dhanmondi rf/a,Bangladesh,24.0,90.0,Dhanmondi
1350,"Dhaka District, Dhamrai Subdistrict - 1350, Bangladesh",23.916809,90.2175148,Unknown
flat d4,Bangladesh,24.0,90.0,Unknown
west monipur,"Monipur, Dhaka - 1216, Bangladesh",23.7987626,90.3621094,Unknown
shireen's kitchen,Bangladesh,24.0,90.0,Unknown
sheikh hasina national institute of burn & plastic surgery,"Sheikh Hasina National Institute of Burn & Plastic Surgery, S. Kamruzzaman Sharani, Bongshal, Dhaka - 1000, Bangladesh",23.7240265,90.4010949,Unknown
bandartila circle,Bangladesh,24.0,90.0,Unknown
b,"b, Adabaria, Barguna Sadar Subdistrict, Bangladesh",22.2233543,90.2001091,Unknown
kolabagan,"Kolabagan, Dhaka - 1205, Bangladesh",23.7488966,90.3821314,Unknown
kitchen zone,Bangladesh,24.0,90.0,Unknown
katabon,"Shahbag, Dhaka - 1205, Bangladesh",23.7376465,90.3889382,Unknown
bishwa road,"Bishwa Road, N2, Brahmanbaria District, Brahmanbaria -, Bangladesh",24.0502624,91.1141694,Unknown
road 5 ) block b,"Road 5 Block B, Niketan, Dhaka - 1029, Bangladesh",23.7731734,90.4109344,Unknown
gaccha,Bangladesh,24.0,90.0,Unknown
uttara model tower,Bangladesh,24.0,90.0,Uttara
toyenbee circular,Bangladesh,24.0,90.0,Unknown
area,"bangladesh, Station Road, Kadirgonj, Rajshahi - 6207, Bangladesh",24.3742327,88.6097252,Unknown
open kitchen 2,Bangladesh,24.0,90.0,Unknown
house 8 road 2/d uttara,"Uttara, Bangladesh",23.8667,90.4,Uttara
aftab nagar,"Aftab Motors, North Brook Hall Road, Bangla Bazar, Dhaka - 1100, Bangladesh",23.7079003,90.4126069,Unknown
azimpur lalbagh,"Azimpur- Lalbagh Road, Azimpur, Dhaka - 1211, Bangladesh",23.7255268,90.3867312,Lalbagh
secvtor 04 purbachal,Bangladesh,24.0,90.0,Unknown
chawk bazar,"Chattogram District, Chattogram - 4203, Bangladesh",22.3572202,91.8355749,Unknown
baridhara notun bazar,"Bangladesh Youth Leadership Center, plot 3 Naya Nagar Road, Baridhara, Dhaka - 1212, Bangladesh",23.7993596,90.4247157,Baridhara
ka,"Bangladesh, Lane 1, Mirpur, Dhaka - 1216",23.8202931,90.3710408,Unknown
shahid baki rd,"Shahid Baki Road, Malibagh, Dhaka - 1219, Bangladesh",23.7522052,90.4173352,Malibagh
darussalam police station,Bangladesh,24.0,90.0,Darussalam
west palashi,"Palashi, Rangpur Division, Bangladesh",25.42339,88.85715,Unknown
neweskaton,Bangladesh,24.0,90.0,Eskaton
north mugda,"Mugda, Dhaka - 1203, Bangladesh",23.7323941,90.4325175,Mugda
1345,"Dhaka District, - 1345, Bangladesh",23.8844085,90.2923699,Unknown
dhanmondi dhaka,"Bangladesh Rifles (BDR) Headquarter, Dhanmondi 2, Jigatola, Dhaka - 1209, Bangladesh",23.7363932,90.3761045,Dhanmondi
chawkbazaer,Bangladesh,24.0,90.0,Unknown
aga nawab deory,"Aga Nawab Deory, Armanitola, Dhaka - 1100, Bangladesh",23.7149515,90.3989146,Unknown
purba badda,"Bangladesh Television, Banasree-Hatirjheel U Loop, Rampura, Dhaka - 1219, Bangladesh",23.765714,90.4230068,Banasree
west tejturipara,Bangladesh,24.0,90.0,Unknown
cmh dhaka dhaka cantonment,"Combined Military Hospital (CMH), Kurmitola Road, Dhaka Cantonment, Dhaka - 1206, Bangladesh",23.8143341,90.3980869,Dhaka Cantonment
1,"building 2, 1 Dhaka - Pabna Highway, Pabna District, Bonogram - 6670, Bangladesh",24.0068393,89.3556617,Unknown
dhaka club limited,"Shahbag, Dhaka, Dhaka District, Bangladesh",23.7386122,90.3975012,Unknown
a,"a, Adabaria, Barguna Sadar Subdistrict, Bangladesh",22.2240032,90.2030141,Unknown
nurfatah lalbagh,"Lalbagh, Bangladesh",23.71739,90.38787,Lalbagh
north badda bus stop,Bangladesh,24.0,90.0,Badda
basan,"Vitipara Jame Masjid, Basan, Mosque, Dhaka - Tangail Highway, Bhogra, Kodda - 1700, Bangladesh",23.98889,90.3654013,Unknown
sher r bangla rd,Bangladesh,24.0,90.0,Unknown
malibagh rail gate,"Malibagh Rail Gate, Atish Depankar Road, Khilgaon, Dhaka - 1217, Bangladesh",23.7497186,90.4132471,Khilgaon
bangladesh bank officers quarter,Bangladesh,24.0,90.0,Unknown
gulshan 1 road no 127 house no 7e,Bangladesh,24.0,90.0,Gulshan
nbew market,Bangladesh,24.0,90.0,Unknown
dhka railway station,Bangladesh,24.0,90.0,Unknown
rayerbag bus stand,Bangladesh,24.0,90.0,Unknown
north badda foot over bridge,Bangladesh,24.0,90.0,Badda
dokkhin shahjahanpur,"Shahjāhanpur, Barisal Division, Bangladesh",21.9128,90.73626,Shahjahanpur
ashulia,"Ashulia, Savar - 1341, Bangladesh",23.8969898,90.3289577,Unknown
board bazar,"Board Bazar, Gazipur - 1712, Bangladesh",23.9452074,90.3825171,Unknown
tower 2,"Xishxehman palace Fatikchhari, Fatikchhari, Fatikchhari Upazila, Bangladesh",22.6839448,91.789139,Unknown
allahr dan khabar hotel and restaurant,Bangladesh,24.0,90.0,Unknown
baridhara r/a,Bangladesh,24.0,90.0,Baridhara
road 8 house 153,Bangladesh,24.0,90.0,Unknown
chartered life insurance company ltd,Bangladesh,24.0,90.0,Unknown
dutch bangla bank limited(dbbl)west dhanmondi,"Dutch-Bangla Bank Limited (DBBL) - Fast Track, Green Rd, Dhaka, Green Road, Panthopath, Dhaka - 1205, Bangladesh",23.7439387,90.3847477,Dhanmondi
d s pharmacy dhaka medical college cangkhar pool,Bangladesh,24.0,90.0,Unknown
shohortoli platform(narayangonj jawar railway),Bangladesh,24.0,90.0,Unknown
postogola shyamoli,"Shyamoli, Bangladesh",23.77438,90.36538,Shyamoli
sontek jatrabari,"Jātrābāri, Bangladesh",24.98797,90.90801,Jatrabari
pirerbag,"Pirerbag, Dhaka - 1916, Bangladesh",23.7901781,90.3666203,Unknown
paribag,"Paribag Mosque, Paribagh Road Number 2, Shahbag, Dhaka - 1205, Bangladesh",23.7418603,90.3930865,Paribagh
road 33 gulshan 1 gulshan,"Road 33, Gulshan, Dhaka - 1212, Bangladesh",23.7867312,90.4153275,Gulshan
shikkatuli,"Bongshal, Dhaka - 1100, Bangladesh",23.7187683,90.4051886,Unknown
dmch garden park dhaka medical college hospital bagan pa,Bangladesh,24.0,90.0,Unknown
south madartek,"Madartek, Dhaka - 1214, Bangladesh",23.7415082,90.4404885,Madartek
rd 9  janata housing mohammadpur,"Mohammadpur, Bangladesh",23.7659,90.35851,Unknown
tampopo kabab house,Bangladesh,24.0,90.0,Unknown
railway station,"Islami Bank Bangladesh Ltd. Kurigram Branch, Kurigram, কুড়িগ্রাম - নাগেশ্বরী - ভুরুঙ্গামারী সড়ক, Kurigram District, Kurigram -, Bangladesh",25.8132936,89.6448356,Unknown
mes,"Dhaka - Bogura Highway, Bogura District, Bogura - 5842, Bangladesh",24.7563805,89.3955922,Unknown
bangladesh shenabahinir sadar dipto,Bangladesh,24.0,90.0,Unknown
nre airport rd,Bangladesh,24.0,90.0,Unknown
kathalbagan green road,"Bangladesh Agricultural Development Corporation, Green Road, Panthopath, Dhaka - 1205, Bangladesh",23.7429661,90.3844183,Kathalbagan
d-mart arambagh motijheel,Bangladesh,24.0,90.0,Motijheel
block i bashundhara r/a,Bangladesh,24.0,90.0,Bashundhara
mesars math baria steel corporation mohammadi,Bangladesh,24.0,90.0,Unknown
11 a road 92 gulsahn 2 gulshan,"Gulshan, Bangladesh",23.7917,90.4167,Gulshan
darussalam,"Darussalam Tower, 59/DA Mirpur Road, Gabtali, Dhaka - 1216, Bangladesh",23.7784362,90.3560408,Darussalam
babar rd,"Maa Babar Doya Iqbal Enterprise, Sea Beach Rd, Chattogram, Sea Beach Road, Chattogram District, Chattogram - 4222, Bangladesh",22.2493665,91.7914726,Unknown
sattar villa sector 15 uttara,"Uttara, Bangladesh",23.8667,90.4,Uttara
circuit house rd,"Rajshahi Simla Park city, Circuit House Rd, Rajshahi, Rajshahi District, Rajshahi - 6000, Bangladesh",24.3633831,88.5807565,Unknown
paradise bhaban lalbagh,"Lalbagh, Bangladesh",23.71739,90.38787,Lalbagh
naya paltan rd,"Naya Paltan Road, Noya Paltan, Dhaka - 1217, Bangladesh",23.7363713,90.4138303,Paltan
48 road 13c banani,"Road 13C, Gulshan, Dhaka - 1213, Bangladesh",23.7919096,90.4072741,Banani
adabar mohammadpur,"Bangladesh Eye care and Faco Center, 18/7, Block # F Ring Road, Adabar, Dhaka - 1207, Bangladesh",23.7691218,90.3588456,Unknown
manik mia avenue,"Manik Mia Avenue, Sobhanbag, Dhaka - 1215, Bangladesh",23.7583626,90.3792793,Unknown
sultana razia road purbo  arichpur tongi,"Tungi, Dhaka Division, Bangladesh",23.89154,90.40232,Unknown
bangladesh army hq,Bangladesh,24.0,90.0,Unknown
rupnagar residential area,"Bangladesh Krishi Bank, Community Center Road, Nawabganj, Dhaka - 1211, Bangladesh",23.7200356,90.3735978,Unknown
postogola railgate,Bangladesh,24.0,90.0,Postogola
washpur,"Washpur, Keraniganj - 1312, Bangladesh",23.7387362,90.3418558,Unknown
industrial area,"Industrial area, Lalmonirhat, Lalmonirhat Sadar, Bangladesh",25.8768402,89.445251,Unknown
daya ganj,Bangladesh,24.0,90.0,Unknown
roadf 13 sector 14 uttara,"Uttara, Bangladesh",23.8667,90.4,Uttara
pallabi ext. gate 2,Bangladesh,24.0,90.0,Unknown
