,id,original_address,cleaned_address,matched_variation,latitude,longitude,provider
7,9007,"ROAD 12,BANANI","ROAD 12,BANANI","ROAD 12,BANANI, Dhaka, Bangladesh",23.7792728,90.4143312,Nominatim
13,9013,"H 88 DINANATH SEN RD ,  GANDARIA","H 88 DINANATH SEN RD ,  GANDARIA","H 88 DINANATH SEN RD ,  GANDARIA, Dhaka, Bangladesh",23.7975188,90.4166052,OpenCage
25,9025,HOUSE 207 ROAD 03 BLOCK B BASHUNDHARA R/A,HOUSE 207 ROAD 03 BLOCK B BASHUNDHARA R/A,"HOUSE 207 ROAD 03 BLOCK B BASHUNDHARA R/A, Dhaka, Bangladesh",23.7109566,90.4228009,OpenCage
32,9032,"ROAD 12 , BANANI","ROAD 12 , BANANI","ROAD 12 , BANANI, Dhaka, Bangladesh",23.7792728,90.4143312,Nominatim
33,9033,"JAHIR GENERAL STORE,35/B,SALIM UDDIN MARKET RD,SENPARA PARBATA,AHMED NAGAR","JAHIR GENERAL STORE,35/B,SALIM UDDIN MARKET RD,SENPARA PARBATA,AHMED NAGAR","JAHIR GENERAL STORE,35/B,SALIM UDDIN MARKET RD,SENPARA PARBATA,AHMED NAGAR, Dhaka, Bangladesh",23.80503,90.36883,OpenCage
38,9038,"DR. BASIL ANWAR , EYE SPECIALIST AND PHACO SURGEON , JIGATOLA , DHANMONDI","DR. BASIL ANWAR , EYE SPECIALIST AND PHACO SURGEON , JIGATOLA , DHANMONDI",JIGATOLA DHANMONDI,23.7462942,90.37776327388092,Nominatim
39,9039,"HOTEL SARINA DHAKA,KAMAL ATATURK AVENUE,DHAKA","HOTEL SARINA DHAKA,KAMAL ATATURK AVENUE,DHAKA","HOTEL SARINA DHAKA,KAMAL ATATURK AVENUE,DHAKA, Dhaka, Bangladesh",23.7104,90.40744,OpenCage
61,9061,"CARS,MOKARROM BUILDING RD,UNIVERSITY OF DHAKA","CARS,MOKARROM BUILDING RD,UNIVERSITY OF DHAKA","CARS,MOKARROM BUILDING RD,UNIVERSITY OF DHAKA, Dhaka, Bangladesh",23.7104,90.40744,OpenCage
62,9062,"KOWBA LAUNDRY AND DRY CLEANERS,BAITUL AMAN HOUSING SOCIETY,ADABOR","KOWBA LAUNDRY AND DRY CLEANERS,BAITUL AMAN HOUSING SOCIETY,ADABOR",BAITUL AMAN HOUSING SOCIETY ADABOR,23.7709656,90.35648562261473,Nominatim
72,9072,MANIKNAGAR MODEL HIGH SCHOOL,MANIKNAGAR MODEL HIGH SCHOOL,"MANIKNAGAR MODEL HIGH SCHOOL, Dhaka, Bangladesh",23.7221142,90.43467186598878,Nominatim
77,9077,AARONG RD 11 BANANI,AARONG RD 11 BANANI,"AARONG RD 11 BANANI, Dhaka, Bangladesh",23.7901076,90.4107286,Nominatim
79,9079,"BASHUNDHARA  K BLOCK FIELD , DHAKA , BANGLADESH","BASHUNDHARA  K BLOCK FIELD , DHAKA , BANGLADESH","BASHUNDHARA  K BLOCK FIELD , DHAKA , BANGLADESH, Dhaka, Bangladesh",23.7104,90.40744,OpenCage
86,9086,SCIENCE LAB POLICE BOX,SCIENCE LAB POLICE BOX,"SCIENCE LAB POLICE BOX, Dhaka, Bangladesh",23.7388054,90.3832282,Nominatim
90,9090,"CAPITAL SIRAJ CENTER , NEW BAILY RD","CAPITAL SIRAJ CENTER , NEW BAILY RD","CAPITAL SIRAJ CENTER , NEW BAILY RD, Dhaka, Bangladesh",23.74162915,90.41054554160928,Nominatim
91,9091,"ROAD 5,BLOCK D,AFTABNAGAR","ROAD 5,BLOCK D,AFTABNAGAR","ROAD 5,BLOCK D,AFTABNAGAR, Dhaka, Bangladesh",23.761598,90.43124745,Nominatim
92,9092,"TASTY TREAT PANTHAPATH , 44/9 , WEST PANTHAPATH","TASTY TREAT PANTHAPATH , 44/9 , WEST PANTHAPATH","TASTY TREAT PANTHAPATH , 44/9 , WEST PANTHAPATH, Dhaka, Bangladesh",23.7559936,90.3896583,OpenCage
104,9104,"UNIVERSAL MEDICAL COLLEGE HOSPITAL , AIRPORT RD , MOHAKHALI","UNIVERSAL MEDICAL COLLEGE HOSPITAL , AIRPORT RD , MOHAKHALI","UNIVERSAL MEDICAL COLLEGE HOSPITAL , AIRPORT RD , MOHAKHALI, Dhaka, Bangladesh",23.77663255,90.395389435862,Nominatim
105,9105,"CSD MOHAKHALI DOHS,RD 21,MOHAKHALI DOHS","CSD MOHAKHALI DOHS,RD 21,MOHAKHALI DOHS","CSD MOHAKHALI DOHS,RD 21,MOHAKHALI DOHS, Dhaka, Bangladesh",23.7847012,90.3968614,Nominatim
111,9111,"DECENT PASTRY SHOP, RANKIN STREET,WARI","DECENT PASTRY SHOP, RANKIN STREET,WARI","DECENT PASTRY SHOP, RANKIN STREET,WARI, Dhaka, Bangladesh",23.7188783,90.4164219,Nominatim
121,9121,"20/3 , ROAD NO. 1 , MOHAMMADI HOUSING LIMITED , MOHAMMADPUR","20/3 , ROAD NO. 1 , MOHAMMADI HOUSING LIMITED , MOHAMMADPUR","20/3 , ROAD NO. 1 , MOHAMMADI HOUSING LIMITED , MOHAMMADPUR, Dhaka, Bangladesh",23.7613115,90.3535406,Nominatim
124,9124,"ARUN ALO , 79 , SIDDESHWARI ROAD , WIRELESS , PALTAN","ARUN ALO , 79 , SIDDESHWARI ROAD , WIRELESS , PALTAN","ARUN ALO , 79 , SIDDESHWARI ROAD , WIRELESS , PALTAN, Dhaka, Bangladesh",23.73625,90.41426,OpenCage
125,9125,"STANDARD CHARTERED BANK ( SCB ) , 67 ,GULSHAN AVENUE , BANANI , GULSHAN","STANDARD CHARTERED BANK ( SCB ) , 67 ,GULSHAN AVENUE , BANANI , GULSHAN","STANDARD CHARTERED BANK ( SCB ) , 67 ,GULSHAN AVENUE , BANANI , GULSHAN, Dhaka, Bangladesh",23.7840139,90.4166363,Nominatim
133,9133,"IQBAL HOSSAIN CATERING SERVICE , RD 6/A, NOBODOY  HOUSING SOCIETY , MOHAMMADPUR","IQBAL HOSSAIN CATERING SERVICE , RD 6/A, NOBODOY  HOUSING SOCIETY , MOHAMMADPUR",HOUSING SOCIETY MOHAMMADPUR,23.7697872,90.36297351865782,Nominatim
134,9134,"HOUSE 73 ROAD 17A, BLOCK E , BANANI DHAKA","HOUSE 73 ROAD 17A, BLOCK E , BANANI DHAKA","HOUSE 73 ROAD 17A, BLOCK E , BANANI DHAKA, Dhaka, Bangladesh",23.7104,90.40744,OpenCage
135,9135,DHAKA MEDICAL COLLEGE,DHAKA MEDICAL COLLEGE,"DHAKA MEDICAL COLLEGE, Dhaka, Bangladesh",23.7264545,90.3972526,Nominatim
145,9145,"SHAHID BAKI SARAK , CHOWDHURIPARA , MALIBAGH","SHAHID BAKI SARAK , CHOWDHURIPARA , MALIBAGH","SHAHID BAKI SARAK , CHOWDHURIPARA , MALIBAGH, Dhaka, Bangladesh",23.75175877780981,90.42274837676398,Nominatim
150,9150,"KHILKHET NIKUNJA 2 MASJID , ROAD 5 , NIKUNJA 2","KHILKHET NIKUNJA 2 MASJID , ROAD 5 , NIKUNJA 2","KHILKHET NIKUNJA 2 MASJID , ROAD 5 , NIKUNJA 2, Dhaka, Bangladesh",23.8303644,90.4178435,Nominatim
154,9154,"GULBAG WATER PUMP , ATOR BIBIR LN  PABNA COLONY ROADF , MALIBAGH","GULBAG WATER PUMP , ATOR BIBIR LN  PABNA COLONY ROADF , MALIBAGH",MALIBAGH,23.7464464,90.4159433,Nominatim
159,9159,"RD 7 , BLOCK F , BANANI","RD 7 , BLOCK F , BANANI","RD 7 , BLOCK F , BANANI, Dhaka, Bangladesh",23.7883599,90.4021634,OpenCage
170,9170,"HOTEL VICTORY , NAYA PALTAN RD , NAYA PALTAN","HOTEL VICTORY , NAYA PALTAN RD , NAYA PALTAN","HOTEL VICTORY , NAYA PALTAN RD , NAYA PALTAN, Dhaka, Bangladesh",23.7362321,90.4135043,Nominatim
171,9171,IBRAHIMPUR BAZAR,IBRAHIMPUR BAZAR,"IBRAHIMPUR BAZAR, Dhaka, Bangladesh",23.799246,90.3818302,Nominatim
182,9182,"82, AHMED AKBAR SOBHAN AVENUE , BLOCK D , BASHUDNHARA R/A","82, AHMED AKBAR SOBHAN AVENUE , BLOCK D , BASHUDNHARA R/A","82, AHMED AKBAR SOBHAN AVENUE , BLOCK D , BASHUDNHARA R/A, Dhaka, Bangladesh",23.81994,90.4339121,OpenCage
189,9189,"15/1A , BLOCK F , HAJI CHINO MIA ROAD , TIKKAPARA , MOHAMMADPUR","15/1A , BLOCK F , HAJI CHINO MIA ROAD , TIKKAPARA , MOHAMMADPUR","15/1A , BLOCK F , HAJI CHINO MIA ROAD , TIKKAPARA , MOHAMMADPUR, Dhaka, Bangladesh",23.7676524,90.359193,OpenCage
194,9194,"AMERICAN WELLNESS CENTER,102,SUKRABAD ROAD,DHAKA 1207,BANGLADESH","AMERICAN WELLNESS CENTER,102,SUKRABAD ROAD,DHAKA 1207,BANGLADESH","AMERICAN WELLNESS CENTER,102,SUKRABAD ROAD,DHAKA 1207,BANGLADESH, Dhaka, Bangladesh",23.7104,90.40744,OpenCage
196,9196,"WARSI LAJABAB FOODS & CAFE,NARINDA,WARI","WARSI LAJABAB FOODS & CAFE,NARINDA,WARI",NARINDA WARI,23.710897,90.4220765,Nominatim
197,9197,"151/3/C,WAPDA ROAD,KHILKANAN R/A,RAMPURA,1000","151/3/C,WAPDA ROAD,KHILKANAN R/A,RAMPURA,1000","151/3/C,WAPDA ROAD,KHILKANAN R/A,RAMPURA,1000, Dhaka, Bangladesh",23.729,90.4112,OpenCage
198,9198,"INTERNATIONAL CONVENTION CITY BASHUDNHARA (ICCB )PURBACHAL EXPRESS HIGHWAYY , DHAKA BANGLADESH","INTERNATIONAL CONVENTION CITY BASHUDNHARA (ICCB )PURBACHAL EXPRESS HIGHWAYY , DHAKA BANGLADESH","INTERNATIONAL CONVENTION CITY BASHUDNHARA (ICCB )PURBACHAL EXPRESS HIGHWAYY , DHAKA BANGLADESH, Dhaka, Bangladesh",23.7104,90.40744,OpenCage
216,9216,"house 96a, road 7 , block f, banani , dhaka","house 96a, road 7 , block f, banani , dhaka","house 96a, road 7 , block f, banani , dhaka, Dhaka, Bangladesh",23.7104,90.40744,OpenCage
228,9228,"RD 30,MOHAKHALI DOHS","RD 30,MOHAKHALI DOHS","RD 30,MOHAKHALI DOHS, Dhaka, Bangladesh",23.7835616,90.39184045073684,Nominatim
229,9229,"RD 1 A,SECTOR 5,UTTARA","RD 1 A,SECTOR 5,UTTARA","RD 1 A,SECTOR 5,UTTARA, Dhaka, Bangladesh",23.86453297882134,90.39139385038403,Nominatim
230,9230,"RD 2B , SECTOR 4 , UTTARA","RD 2B , SECTOR 4 , UTTARA","RD 2B , SECTOR 4 , UTTARA, Dhaka, Bangladesh",23.87479525,90.39374885,Nominatim
231,9231,"AL BARAKAH GENERAL HOSPITAL,OUTER CIRCULAR RD,RAJARBAG,SHANTIBAGH,MALIBAGH","AL BARAKAH GENERAL HOSPITAL,OUTER CIRCULAR RD,RAJARBAG,SHANTIBAGH,MALIBAGH","AL BARAKAH GENERAL HOSPITAL,OUTER CIRCULAR RD,RAJARBAG,SHANTIBAGH,MALIBAGH, Dhaka, Bangladesh",23.7410273,90.4186838,Nominatim
236,9236,"ANWAR KHAN MODERN MEDICAL COLLEGE HOSPITAL,H 17,MIRPUR RD,DHANMONDI","ANWAR KHAN MODERN MEDICAL COLLEGE HOSPITAL,H 17,MIRPUR RD,DHANMONDI",H 17 MIRPUR RD DHANMONDI,23.74537103732329,90.3817467098132,Nominatim
263,9263,"SETU BHABAN,NEW AIRPORT ROAD,MOHAKHALI,GULSHAN","SETU BHABAN,NEW AIRPORT ROAD,MOHAKHALI,GULSHAN","SETU BHABAN,NEW AIRPORT ROAD,MOHAKHALI,GULSHAN, Dhaka, Bangladesh",23.7847951,90.39961665,Nominatim
265,9265,"BANGLADESH ISLAMI BANK CHATRADHIBIR CENTRAL OFFICE , PURANA PALTAN","BANGLADESH ISLAMI BANK CHATRADHIBIR CENTRAL OFFICE , PURANA PALTAN","BANGLADESH ISLAMI BANK CHATRADHIBIR CENTRAL OFFICE , PURANA PALTAN, Dhaka, Bangladesh",23.73625,90.41426,OpenCage
269,9269,"JOWAR SHAHARA BAZAR MASJID , H A 4 , BAZAR RD , JOAR SHAHARA","JOWAR SHAHARA BAZAR MASJID , H A 4 , BAZAR RD , JOAR SHAHARA",RD JOAR SHAHARA,23.815687206080465,90.41690314859932,Nominatim
278,9278,"BITS AND BITS CAFE , H 86 , GAUSUL AZAM AVE , SECTOR 14 , UTTARA","BITS AND BITS CAFE , H 86 , GAUSUL AZAM AVE , SECTOR 14 , UTTARA",H 86 GAUSUL AZAM AVE SECTOR 14 UTTARA,23.869502635006207,90.3935455562256,Nominatim
283,9283,"4/1, SATMASJID ROAD , MOHAMMADPUR","4/1, SATMASJID ROAD , MOHAMMADPUR","4/1, SATMASJID ROAD , MOHAMMADPUR, Dhaka, Bangladesh",23.749726521825863,90.3690340741344,Nominatim
287,9287,"HOUSE 60,ROAD 18,BLOCK J,BANANI,DHAKA","HOUSE 60,ROAD 18,BLOCK J,BANANI,DHAKA","HOUSE 60,ROAD 18,BLOCK J,BANANI,DHAKA, Dhaka, Bangladesh",23.7104,90.40744,OpenCage
299,9299,"217,KAFRUL TOWER,EAST KAFRUL,DHAKA 1206","217,KAFRUL TOWER,EAST KAFRUL,DHAKA 1206","217,KAFRUL TOWER,EAST KAFRUL,DHAKA 1206, Dhaka, Bangladesh",23.8179,90.4103,OpenCage
300,9300,"DARUSSALAM TOWER , MIRPUR ROAD","DARUSSALAM TOWER , MIRPUR ROAD","DARUSSALAM TOWER , MIRPUR ROAD, Dhaka, Bangladesh",23.77843615,90.35604084070364,Nominatim
301,9301,"ASIA CINEMA HALL,DARUS SALAM RD,MIRPUR 1","ASIA CINEMA HALL,DARUS SALAM RD,MIRPUR 1","ASIA CINEMA HALL,DARUS SALAM RD,MIRPUR 1, Dhaka, Bangladesh",23.7829296,90.3521606,Nominatim
303,9303,"TAX,SECTOR 3,UTTARA","TAX,SECTOR 3,UTTARA","TAX,SECTOR 3,UTTARA, Dhaka, Bangladesh",23.8812216,90.3914777,OpenCage
309,9309,"APON COFEE HOUSE,H 381/B,SHAHID BAKI SARAK,TALTOLA,KHILGAON","APON COFEE HOUSE,H 381/B,SHAHID BAKI SARAK,TALTOLA,KHILGAON",TALTOLA KHILGAON,23.7515626,90.42465191158236,Nominatim
324,9324,"RUPAYAN LOTUS APARTMENT , SEGUNBAGICHA ROAD , RAMNA 1000","RUPAYAN LOTUS APARTMENT , SEGUNBAGICHA ROAD , RAMNA 1000","RUPAYAN LOTUS APARTMENT , SEGUNBAGICHA ROAD , RAMNA 1000, Dhaka, Bangladesh",23.729,90.4112,OpenCage
326,9326,"ADABOR ROAD 4,ABDUL RAFIQ HOUSING,ADABAR","ADABOR ROAD 4,ABDUL RAFIQ HOUSING,ADABAR","ADABOR ROAD 4,ABDUL RAFIQ HOUSING,ADABAR, Dhaka, Bangladesh",23.77219537220357,90.35730423283654,Nominatim
329,9329,"mirpur 6 no bazar , mirpur 6","mirpur 6 no bazar , mirpur 6",bazar mirpur 6,23.810498,90.3664167,Nominatim
330,9330,"PEACE GROUND 407 , BLOCK D, BASHUNDHARA R/ A","PEACE GROUND 407 , BLOCK D, BASHUNDHARA R/ A",BLOCK D BASHUNDHARA R/ A,23.8166725,90.42942658076268,Nominatim
331,9331,"NADDA PARA,BOISAKHE MOR,HAZI CAMP RD,NADDA PARA,DAKSHINKHAN","NADDA PARA,BOISAKHE MOR,HAZI CAMP RD,NADDA PARA,DAKSHINKHAN",PARA DAKSHINKHAN,23.861473,90.4264484,Nominatim
332,9332,"BASHUNDHARA GENERAL STORE,FAKIRAPOOL RD,FAKIRAPOOL","BASHUNDHARA GENERAL STORE,FAKIRAPOOL RD,FAKIRAPOOL",FAKIRAPOOL RD FAKIRAPOOL,23.733007117801744,90.41544050665308,Nominatim
333,9333,"SONAR BANGLA,MATUAIL,JATRABARI","SONAR BANGLA,MATUAIL,JATRABARI",MATUAIL JATRABARI,23.7126985,90.4525271,Nominatim
334,9334,"JODU MOLLA COMPLEX,H 36/1,BENAROSHI PALLI RD,BLOCK B,MIRPUR 10","JODU MOLLA COMPLEX,H 36/1,BENAROSHI PALLI RD,BLOCK B,MIRPUR 10",RD BLOCK B MIRPUR 10,23.8082843,90.372807,Nominatim
335,9335,"ARTIFACT TRADING LIMITED , ROAD 18 , SECTOR 7 , UTTARA","ARTIFACT TRADING LIMITED , ROAD 18 , SECTOR 7 , UTTARA",ROAD 18 SECTOR 7 UTTARA,23.87219697165031,90.39440932037893,Nominatim
336,9336,"ROAD 17A,BANANI","ROAD 17A,BANANI","ROAD 17A,BANANI, Dhaka, Bangladesh",23.7921919,90.4088081,Nominatim
338,9338,"BESIDE PADMA GARMENTS , NORTH BEGUNBARI , TEJGAON","BESIDE PADMA GARMENTS , NORTH BEGUNBARI , TEJGAON",NORTH BEGUNBARI TEJGAON,23.761276391176896,90.40591775167007,Nominatim
339,9339,"TURKEY BLISS , ROAD 11, BLOCK F, BANANI","TURKEY BLISS , ROAD 11, BLOCK F, BANANI",BLOCK F BANANI,23.7876855,90.4013312,Nominatim
341,9341,"HOUSE 3,ROAD 3,SECTOR 4,UTTARA","HOUSE 3,ROAD 3,SECTOR 4,UTTARA","HOUSE 3,ROAD 3,SECTOR 4,UTTARA",23.861739491136916,90.39638724493264,Nominatim
342,9342,"RD 18 , ADABOR","RD 18 , ADABOR","RD 18 , ADABOR, Dhaka, Bangladesh",23.7629379,90.3567682,Nominatim
343,9343,"SAMSHUR NAHAR RD,MIDDLE AZAZMPUR,DAKSHINKHAN","SAMSHUR NAHAR RD,MIDDLE AZAZMPUR,DAKSHINKHAN",DAKSHINKHAN,23.8604152,90.4268187,Nominatim
344,9344,"UNITED INTERNATIONAL UNIVERSITY MAIN CAMPUS,VATARA BRIDGE","UNITED INTERNATIONAL UNIVERSITY MAIN CAMPUS,VATARA BRIDGE",VATARA BRIDGE,23.7998305,90.44548495,Nominatim
346,9346,"JAHANGIRNAGAR HOSPITAL , DAYAGANJ RD , SWAMIBAG","JAHANGIRNAGAR HOSPITAL , DAYAGANJ RD , SWAMIBAG",DAYAGANJ RD SWAMIBAG,23.7134733,90.4222305,Nominatim
347,9347,"SHAPLA BUILDING,MIST MIRPUR CANTONMENT","SHAPLA BUILDING,MIST MIRPUR CANTONMENT",BUILDING MIST MIRPUR CANTONMENT,23.83895015,90.3588015300081,Nominatim
349,9349,"KALABAGAN WEST BUS STOP,KALABAGAN OVER BRIDGE,KALABAGAN","KALABAGAN WEST BUS STOP,KALABAGAN OVER BRIDGE,KALABAGAN",BRIDGE KALABAGAN,23.7485213,90.3798152,Nominatim
350,9350,"SKY VIEW TRADE CENTER,SHANTINAGAR,KAKRAIL","SKY VIEW TRADE CENTER,SHANTINAGAR,KAKRAIL",SHANTINAGAR KAKRAIL,23.7415661,90.4120606,Nominatim
351,9351,"SQUARE TOWER , PRIANGON GOLI , DHANMONDI","SQUARE TOWER , PRIANGON GOLI , DHANMONDI","SQUARE TOWER , PRIANGON GOLI , DHANMONDI, Dhaka, Bangladesh",23.73768095,90.38462745016967,Nominatim
352,9352,"SAHDIN TELECOM ., BORO MOGBAZAR","SAHDIN TELECOM ., BORO MOGBAZAR",. BORO MOGBAZAR,23.7458916,90.40801361383647,Nominatim
353,9353,"AYESHA ABED LIBRARY,BRAC UNIVERSITY,SOUTH BADDA","AYESHA ABED LIBRARY,BRAC UNIVERSITY,SOUTH BADDA",BRAC UNIVERSITY SOUTH BADDA,23.7733146,90.42437100116996,Nominatim
355,9355,"BADDA GIRLS HIGH SCHOOL , BADDA GIRLS SCHOOL RD , NORTH BADDA","BADDA GIRLS HIGH SCHOOL , BADDA GIRLS SCHOOL RD , NORTH BADDA",RD NORTH BADDA,23.7854175,90.4279147,Nominatim
356,9356,"SONALI BANK LTD,DHAKA MYMENSINGH HIGHWAY,SECTOR 1,DHAKA CANTONMENT","SONALI BANK LTD,DHAKA MYMENSINGH HIGHWAY,SECTOR 1,DHAKA CANTONMENT",SECTOR 1 DHAKA CANTONMENT,23.8047931,90.3986929,Nominatim
357,9357,"HOTEL GRACE 21, H 1/A, RD 21 , NIKUNJA","HOTEL GRACE 21, H 1/A, RD 21 , NIKUNJA",H 1/A RD 21 NIKUNJA,23.835798274132557,90.41677409651932,Nominatim
358,9358,"AIRPORT ROAD , NEW AIRPORT ROAD, KURMITOLA N, SECTOR 2","AIRPORT ROAD , NEW AIRPORT ROAD, KURMITOLA N, SECTOR 2",KURMITOLA N SECTOR 2,23.80480295997705,90.3980224044458,Nominatim
359,9359,"PACIFIC SPORTS GROUND , PLOT 965-1004, ROAD 15 , BLOCK I , BASHUNDHARA , DHAKA","PACIFIC SPORTS GROUND , PLOT 965-1004, ROAD 15 , BLOCK I , BASHUNDHARA , DHAKA",1004 ROAD 15 BLOCK I BASHUNDHARA DHAKA,23.82025669709862,90.44637153184888,Nominatim
360,9360,"BANGLADE4SH SPECIALLIZED HOSPITAL MIRPUR RD , SHYAMOLI","BANGLADE4SH SPECIALLIZED HOSPITAL MIRPUR RD , SHYAMOLI",MIRPUR RD SHYAMOLI,23.78222170015121,90.3505159427737,Nominatim
361,9361,"FARUK & ASSOSIATE , GREEN ROAD, KATHALBAGAN","FARUK & ASSOSIATE , GREEN ROAD, KATHALBAGAN",GREEN ROAD KATHALBAGAN,23.745800719454447,90.38521101230953,Nominatim
362,9362,"INSAF BARAKAH KINDEY & GENERAL HOSPITAL , SHAHID TAZUDDIN AHMED AVE , MOGBAZAR","INSAF BARAKAH KINDEY & GENERAL HOSPITAL , SHAHID TAZUDDIN AHMED AVE , MOGBAZAR",MOGBAZAR,23.7543737,90.40959956934496,Nominatim
364,9364,"PARK HOMES AKIRA , BLOCK K , BASHUNDHARA R/A","PARK HOMES AKIRA , BLOCK K , BASHUNDHARA R/A",BASHUNDHARA R/A,23.8166725,90.42942658076268,Nominatim
365,9365,"TANU MANSION,C 37,ROAD 3,MOHANAGAR HOUSING PROJECT,NIKETAN","TANU MANSION,C 37,ROAD 3,MOHANAGAR HOUSING PROJECT,NIKETAN",PROJECT NIKETAN,23.7659671,90.4131499,Nominatim
366,9366,"QUANTAM LA CONSTRUCTION , BANANI DOHS","QUANTAM LA CONSTRUCTION , BANANI DOHS",BANANI DOHS,23.794234722576057,90.4003372843106,Nominatim
367,9367,"KHAN BROTHERS GULSHAN , GULSHAN 1 , GULSHAN","KHAN BROTHERS GULSHAN , GULSHAN 1 , GULSHAN",GULSHAN GULSHAN 1 GULSHAN,23.787983948959024,90.41673611487955,Nominatim
368,9368,"OPSHA MART CAR , NAYA PALTAN","OPSHA MART CAR , NAYA PALTAN",NAYA PALTAN,23.73637127503201,90.4138303058539,Nominatim
371,9371,"EASTERN MOLLIKA GOLI , NEW ELEPHANT RD , DHANMONDI","EASTERN MOLLIKA GOLI , NEW ELEPHANT RD , DHANMONDI",NEW ELEPHANT RD DHANMONDI,23.73899199886276,90.38723863934514,Nominatim
372,9372,"INTERFLG TRADING AGENCY LIMITED,SECTOR 11,UTTARA","INTERFLG TRADING AGENCY LIMITED,SECTOR 11,UTTARA",LIMITED SECTOR 11 UTTARA,23.8741105,90.3910819,Nominatim
373,9373,"H 12 /K , RD 17 , BLOCK G , BASHUNDHARA R/A","H 12 /K , RD 17 , BLOCK G , BASHUNDHARA R/A",BASHUNDHARA R/A,23.8166725,90.42942658076268,Nominatim
374,9374,"TECHSAMIRBD,PALLABI,MIRPUR","TECHSAMIRBD,PALLABI,MIRPUR",PALLABI MIRPUR,23.82463715,90.36759485,Nominatim
375,9375,"WEST RAMPURA,ULON,RAMPURA","WEST RAMPURA,ULON,RAMPURA","WEST RAMPURA,ULON,RAMPURA, Dhaka, Bangladesh",23.765714000000003,90.4230067540958,Nominatim
376,9376,"FOOD STREET,PANTHAPATH","FOOD STREET,PANTHAPATH",STREET PANTHAPATH,23.7506625,90.3876017,Nominatim
377,9377,"SUBORNO REKHA , SECTOR 8 , UTTARA","SUBORNO REKHA , SECTOR 8 , UTTARA",SECTOR 8 UTTARA,23.8777293,90.4038344,Nominatim
379,9379,NAVANA SILBER DALE 33/34 NORTH BASABO,NAVANA SILBER DALE 33/34 NORTH BASABO,33/34 NORTH BASABO,23.7432489,90.4295,Nominatim
381,9381,"BEST STREET KEBAB, EIDGAH MATT , SONY HALL , MIRPUR 1","BEST STREET KEBAB, EIDGAH MATT , SONY HALL , MIRPUR 1",SONY HALL MIRPUR 1,23.8004874,90.3553934,Nominatim
382,9382,"TSC , BSMMU , SHAHBAGH , RAMNA","TSC , BSMMU , SHAHBAGH , RAMNA",BSMMU SHAHBAGH RAMNA,23.7387404,90.3938152,Nominatim
384,9384,"SHYAMOLI NR TRAVELS TECHNICAL MOR COUNTER,GOIDARTEK,DARUS SALAM,MIRPUR","SHYAMOLI NR TRAVELS TECHNICAL MOR COUNTER,GOIDARTEK,DARUS SALAM,MIRPUR",COUNTER GOIDARTEK DARUS SALAM MIRPUR,23.7828006,90.34252,Nominatim
385,9385,"HOUSE 42 , ROAD 17 , SECTOR 11 , UTTARA","HOUSE 42 , ROAD 17 , SECTOR 11 , UTTARA",42 ROAD 17 SECTOR 11 UTTARA,23.8760024,90.3904103,Nominatim
386,9386,"B BARIA ELECTRIC & DECORATORS,MIDDLE BASHABO","B BARIA ELECTRIC & DECORATORS,MIDDLE BASHABO",MIDDLE BASHABO,23.7415414,90.4319335,Nominatim
388,9388,"AMIN GENERAL STORE , H 497 , BEPARI GOLI , MOGBAZAR","AMIN GENERAL STORE , H 497 , BEPARI GOLI , MOGBAZAR",497 BEPARI GOLI MOGBAZAR,23.75065060974418,90.40824902439137,Nominatim
389,9389,"JIGATOLA MEDICARE , RD 21 , MOHAKHALI DOHS","JIGATOLA MEDICARE , RD 21 , MOHAKHALI DOHS",RD 21 MOHAKHALI DOHS,23.78090465,90.39574251401798,Nominatim
390,9390,"SINGER PLUS , H 91 , BIR UTTAM AK KHANDAKAR RD , GULSHAN 1","SINGER PLUS , H 91 , BIR UTTAM AK KHANDAKAR RD , GULSHAN 1",AK KHANDAKAR RD GULSHAN 1,23.7806557,90.41508047093998,Nominatim
391,9391,"SKY PARK , 1063, D BLOCK 6 NO ROAD , BLOCK D, BASHUNDHARA R/A","SKY PARK , 1063, D BLOCK 6 NO ROAD , BLOCK D, BASHUNDHARA R/A",D BLOCK 6 NO ROAD BLOCK D BASHUNDHARA R/A,23.81551046847158,90.43122722117783,Nominatim
392,9392,"MIRPUR NATIONAL ZOO , ZOO RD , MIRPUR 2","MIRPUR NATIONAL ZOO , ZOO RD , MIRPUR 2",ZOO ZOO RD MIRPUR 2,23.80940382549808,90.35033682585812,Nominatim
393,9393,"OBSTERICAL & GYNAECOLOGICAL SOCIETY OF BANGLADESH HOSPITAL(OGSB HOSPITAL)SECTION 13,MIRPUR","OBSTERICAL & GYNAECOLOGICAL SOCIETY OF BANGLADESH HOSPITAL(OGSB HOSPITAL)SECTION 13,MIRPUR",13 MIRPUR,23.8182441,90.3757652,Nominatim
394,9394,"JAPAN GARDEN CITY BLDG NO 10,JAPAN GARDEN CITY RD,JAPAN GARDEN CITY,
MOHAMMADPUR","JAPAN GARDEN CITY BLDG NO 10,JAPAN GARDEN CITY RD,JAPAN GARDEN CITY,
MOHAMMADPUR",NO 10 JAPAN GARDEN CITY RD JAPAN GARDEN CITY MOHAMMADPUR,23.763336,90.36322156110332,Nominatim
395,9395,"36/A , DHAKA HOUSING , UTTOR ADABOR, MOHAMMADPUR","36/A , DHAKA HOUSING , UTTOR ADABOR, MOHAMMADPUR",ADABOR MOHAMMADPUR,23.77375687138449,90.35743275320807,Nominatim
396,9396,"HAZRATPUR,KERANIGONJ,DHAKA","HAZRATPUR,KERANIGONJ,DHAKA",KERANIGONJ DHAKA,23.695502,90.3985875,Nominatim
397,9397,"BANDBOX LAUNDRY,116,ROAD 11,BANANI","BANDBOX LAUNDRY,116,ROAD 11,BANANI",116 ROAD 11 BANANI,23.779395549777124,90.41577229998413,Nominatim
398,9398,"BIMAN HOLIDAY PREMIUM LOUNGE,
HAZRAT SHAHJALAL INTERNATIONAL LOUNGE,KURMITOLA","BIMAN HOLIDAY PREMIUM LOUNGE,
HAZRAT SHAHJALAL INTERNATIONAL LOUNGE,KURMITOLA",KURMITOLA,23.8251851,90.4057949,Nominatim
400,9400,"LIFE CARE MEDICAL CENTER,DHAKA WIRELESS GATE,MOHAKHALI","LIFE CARE MEDICAL CENTER,DHAKA WIRELESS GATE,MOHAKHALI",DHAKA WIRELESS GATE MOHAKHALI,23.78100007878564,90.40687236672623,Nominatim
401,9401,"MR BAKER CAKE& PASTRY SHOP,H 847,BEGUM ROKEYA SARANI,WEST SHEWRAPARA","MR BAKER CAKE& PASTRY SHOP,H 847,BEGUM ROKEYA SARANI,WEST SHEWRAPARA",847 BEGUM ROKEYA SARANI WEST SHEWRAPARA,23.7873684,90.3758373,Nominatim
402,9402,"BAM&QS , ROAD 62 , GULSHAN 2 , GULSHAN","BAM&QS , ROAD 62 , GULSHAN 2 , GULSHAN",ROAD 62 GULSHAN 2 GULSHAN,23.80042047058429,90.40964436373056,Nominatim
403,9403,"BRAC UNIVERSITY,SOUTH BADDA","BRAC UNIVERSITY,SOUTH BADDA","BRAC UNIVERSITY,SOUTH BADDA, Dhaka, Bangladesh",23.7733146,90.42437100116996,Nominatim
404,9404,"GREEN VILLA OUTDOORS , MADANI AVENUE , 100 FEET ROAD","GREEN VILLA OUTDOORS , MADANI AVENUE , 100 FEET ROAD",MADANI AVENUE 100 FEET ROAD,23.80138446324961,90.45789113815827,Nominatim
405,9405,"OPORAJITA APARTMENT , HOUSE 2 , ROAD 15 , SECTOR 7 , UTTARA","OPORAJITA APARTMENT , HOUSE 2 , ROAD 15 , SECTOR 7 , UTTARA",HOUSE 2 ROAD 15 SECTOR 7 UTTARA,23.86596009920053,90.39516200235664,Nominatim
406,9406,"CARINO , 529 , ADABOR ROAD 12 B , ABDUL RAFIQ HOUSING , ADABAR","CARINO , 529 , ADABOR ROAD 12 B , ABDUL RAFIQ HOUSING , ADABAR",ADABOR ROAD 12 B ABDUL RAFIQ HOUSING ADABAR,23.77051592770863,90.35832828213768,Nominatim
407,9407,"IBAIS UNIVERSITY , H 16 , RHD 5 , UTTARA SECTOR 4","IBAIS UNIVERSITY , H 16 , RHD 5 , UTTARA SECTOR 4",5 UTTARA SECTOR 4,23.8646816,90.4000825,Nominatim
408,9408,"BALURGHAT DARBAR SHARIF LN,AMLIGOLA,LALBAG","BALURGHAT DARBAR SHARIF LN,AMLIGOLA,LALBAG","BALURGHAT DARBAR SHARIF LN,AMLIGOLA,LALBAG, Dhaka, Bangladesh",23.720043749642983,90.38011264745307,Nominatim
411,9411,"RONONDA PHARMACY , H 53/1 , INDIRA RD , FARMGATE","RONONDA PHARMACY , H 53/1 , INDIRA RD , FARMGATE",53/1 INDIRA RD FARMGATE,23.758205959988747,90.38884026330165,Nominatim
412,9412,"H 44, MADRASA RD LN , METROPOLITON COOOPERATIVE HOUSING SOCIETY , MOHAMMADPUR","H 44, MADRASA RD LN , METROPOLITON COOOPERATIVE HOUSING SOCIETY , MOHAMMADPUR",HOUSING SOCIETY MOHAMMADPUR,23.7697872,90.36297351865782,Nominatim
413,9413,"MUGDAA MEDICAL COLLEGE & HOSPITAL , HAZI KHADEM ALI RD , MUGDA","MUGDAA MEDICAL COLLEGE & HOSPITAL , HAZI KHADEM ALI RD , MUGDA",ALI RD MUGDA,23.731669246702868,90.43011572263045,Nominatim
414,9414,"H 380/12,KUNJABAN RD,EAST RAMPURA","H 380/12,KUNJABAN RD,EAST RAMPURA",RD EAST RAMPURA,23.7588451,90.4184812175,Nominatim
418,9418,"MBL CENTER , WEST DHANMONDI","MBL CENTER , WEST DHANMONDI",WEST DHANMONDI,23.745763,90.36968610363476,Nominatim
419,9419,"NETHERLANDS LANGUAGE INSTITUTION , ROAD 90 , GULSHAN NORTH AVE , GULSHAN 2","NETHERLANDS LANGUAGE INSTITUTION , ROAD 90 , GULSHAN NORTH AVE , GULSHAN 2",AVE GULSHAN 2,23.7962493,90.4176239,Nominatim
421,9421,"ROAD 63 , GULSHAN 2 , GULSHAN","ROAD 63 , GULSHAN 2 , GULSHAN","ROAD 63 , GULSHAN 2 , GULSHAN, Dhaka, Bangladesh",23.80120724996951,90.40802875136386,Nominatim
422,9422,"OPEX GROUP , LINE 2, MIRPUR 13","OPEX GROUP , LINE 2, MIRPUR 13",LINE 2 MIRPUR 13,23.807872133512724,90.37998971327418,Nominatim
423,9423,"CM SERVICING CENTER , SHAHEED TAZUDDIN AVENUE , MOHAKHALI , GULSHAN","CM SERVICING CENTER , SHAHEED TAZUDDIN AVENUE , MOHAKHALI , GULSHAN",AVENUE MOHAKHALI GULSHAN,23.7937922,90.41546858472827,Nominatim
424,9424,"INTERSTUDIO LTD,MADANI AVENUR,GULSHAN 2,GULSHAN","INTERSTUDIO LTD,MADANI AVENUR,GULSHAN 2,GULSHAN",GULSHAN 2 GULSHAN,23.7947191,90.4136986,Nominatim
425,9425,"VISION OPTICS , GREEN ROAD , DHANMONDI","VISION OPTICS , GREEN ROAD , DHANMONDI",OPTICS GREEN ROAD DHANMONDI,23.7565293,90.3895641,Nominatim
427,9427,"COUNTRY SIDE ROOFTOP , BLOCK D, MIRPUR 2","COUNTRY SIDE ROOFTOP , BLOCK D, MIRPUR 2",BLOCK D MIRPUR 2,23.8020146,90.3555966,Nominatim
428,9428,"SHWAPNO , 76/A , ROAD 11 ,BANANI , GULSHAN","SHWAPNO , 76/A , ROAD 11 ,BANANI , GULSHAN","SHWAPNO , 76/A , ROAD 11 ,BANANI , GULSHAN, Dhaka, Bangladesh",23.7902139,90.4103458,Nominatim
429,9429,"HOUSE 51, ROAD 19 , SECTOR 11 , UTTARA","HOUSE 51, ROAD 19 , SECTOR 11 , UTTARA",51 ROAD 19 SECTOR 11 UTTARA,23.875217449598612,90.38762296331312,Nominatim
430,9430,"446, ROAD 6A, MIRPUR DOHS , MIRPUR 12","446, ROAD 6A, MIRPUR DOHS , MIRPUR 12",ROAD 6A MIRPUR DOHS MIRPUR 12,23.83582625170719,90.37207412901977,Nominatim
431,9432,"AMAZING PARADISE , SOUTH BADDA","AMAZING PARADISE , SOUTH BADDA",SOUTH BADDA,23.7751646,90.4225629,Nominatim
433,9434,"JAMUNA FUTURE PARK,ENTRY WAY,PRAGATI SARANI,BASUNDHARA","JAMUNA FUTURE PARK,ENTRY WAY,PRAGATI SARANI,BASUNDHARA",PRAGATI SARANI BASUNDHARA,23.8118974,90.4211787,Nominatim
434,9435,"ANWAR KHAN MODERN MEDICAL COLLEGE,RD 7,DHANMONDI","ANWAR KHAN MODERN MEDICAL COLLEGE,RD 7,DHANMONDI",7 DHANMONDI,23.74030525,90.38220820345856,Nominatim
437,9438,"SIKDER BARI GOVT OFFICERS QUARTER PLAYGROUND , SECTOR 8 , ROAD 8 , UTTARA , KOTBARI BAZAR , SECTOR 8","SIKDER BARI GOVT OFFICERS QUARTER PLAYGROUND , SECTOR 8 , ROAD 8 , UTTARA , KOTBARI BAZAR , SECTOR 8","SIKDER BARI GOVT OFFICERS QUARTER PLAYGROUND , SECTOR 8 , ROAD 8 , UTTARA , KOTBARI BAZAR , SECTOR 8, Dhaka, Bangladesh",23.8787794,90.40304788805264,Nominatim
438,9439,"260/1 , MALIBAGH COLLEGE ROAD , MALIBAGH MOR , MALIBAGH","260/1 , MALIBAGH COLLEGE ROAD , MALIBAGH MOR , MALIBAGH",MALIBAGH MOR MALIBAGH,23.74419188131901,90.41424554224132,Nominatim
440,9441,"MONI STORE,NOBODOY HOUSING,MOHAMMADPUR","MONI STORE,NOBODOY HOUSING,MOHAMMADPUR",HOUSING MOHAMMADPUR,23.7569042,90.36356556517757,Nominatim
441,9442,"ALEYA VILLA,DHOLIPARA,UTTARA","ALEYA VILLA,DHOLIPARA,UTTARA",DHOLIPARA UTTARA,23.8591761,90.3860889,Nominatim
442,9443,"road 22,MOHAKHALI DOHS,SHER E BANGLA NAGAR","road 22,MOHAKHALI DOHS,SHER E BANGLA NAGAR",SHER E BANGLA NAGAR,23.7741959,90.3754853,Nominatim
443,9444,"SHYAMOLI BUS COUNTER , H 167 , TOYENBEE CIRCULAR RD , MOTIJHEEL","SHYAMOLI BUS COUNTER , H 167 , TOYENBEE CIRCULAR RD , MOTIJHEEL",CIRCULAR RD MOTIJHEEL,23.7221011,90.4165215,Nominatim
444,9445,"SULRAN HAJI , 102 SONA MIA MOHOLLA , K. B. . ROAD , DAILPOTTI , KERANIGANJ SUBDISTRICT","SULRAN HAJI , 102 SONA MIA MOHOLLA , K. B. . ROAD , DAILPOTTI , KERANIGANJ SUBDISTRICT",KERANIGANJ SUBDISTRICT,23.6983432,90.34727078010783,Nominatim
447,9448,"ALHAZ MOKBUL HOSSAIN UNIVERSITY  COLLEGE , SADEK KHAN RD , MOHAMMADPUR","ALHAZ MOKBUL HOSSAIN UNIVERSITY  COLLEGE , SADEK KHAN RD , MOHAMMADPUR",SADEK KHAN RD MOHAMMADPUR,23.747095,90.3592547,Nominatim
448,9449,"VITA HEALTH MEDICAL CENTRE , BLOCK E , LALMATIA","VITA HEALTH MEDICAL CENTRE , BLOCK E , LALMATIA",BLOCK E LALMATIA,23.754238731078047,90.36593892399564,Nominatim
449,9450,"NOORJAHAN HERITAGE,RUPNAGAR RESIDENTIAL AREA,MIRPUR","NOORJAHAN HERITAGE,RUPNAGAR RESIDENTIAL AREA,MIRPUR",RESIDENTIAL AREA MIRPUR,23.8107214,90.36422614972622,Nominatim
450,9451,"URBAN AMIRAS NILOY , SECTOR 1, UTTARA","URBAN AMIRAS NILOY , SECTOR 1, UTTARA",SECTOR 1 UTTARA,23.8580674,90.4011307,Nominatim
452,9453,"AD DIN WOMEN MEDICAL COLLEGE & HOSPITAL , MOGHBAZAR","AD DIN WOMEN MEDICAL COLLEGE & HOSPITAL , MOGHBAZAR",MOGHBAZAR,23.747718617854236,90.40091797342724,Nominatim
454,9455,"THAT FASHION , MUKTOBANGLA SHOPPING COMPLEX , MIRPUR 1","THAT FASHION , MUKTOBANGLA SHOPPING COMPLEX , MIRPUR 1",SHOPPING COMPLEX MIRPUR 1,23.7986576,90.3528801240906,Nominatim
456,9457,"BRAC UNIVERSITY,BIR UTTAM AK KHANDAKAR RD,MOHAKHALI","BRAC UNIVERSITY,BIR UTTAM AK KHANDAKAR RD,MOHAKHALI",BIR UTTAM AK KHANDAKAR RD MOHAKHALI,23.781793247950617,90.40307217406144,Nominatim
457,9458,"ABID BURGER HOUSE , ABDULLAHPUR BUS STOP , UTTARA","ABID BURGER HOUSE , ABDULLAHPUR BUS STOP , UTTARA",ABDULLAHPUR BUS STOP UTTARA,23.8796426,90.401186,Nominatim
458,9459,"H 146/3 , WAPDA RD , WEST RAMPURA","H 146/3 , WAPDA RD , WEST RAMPURA",WAPDA RD WEST RAMPURA,23.760397879849325,90.41785899058804,Nominatim
459,9460,"NAYABAZAR PAPER MARKET , NAYA BAZAR RD , BABU BAZAR","NAYABAZAR PAPER MARKET , NAYA BAZAR RD , BABU BAZAR",MARKET NAYA BAZAR RD BABU BAZAR,23.7146166,90.406245,Nominatim
461,9462,"TEACHING & TRAINING PET HOSPITAL; AND RESEARCH CENTER , SECTOR 18 , PURBACHAL","TEACHING & TRAINING PET HOSPITAL; AND RESEARCH CENTER , SECTOR 18 , PURBACHAL",SECTOR 18 PURBACHAL,23.8520797,90.4996974,Nominatim
462,9463,"KIDNEY FOUNDATION BANGLADESH,MIRPUR COLLEGE RD,MIRPUR 2","KIDNEY FOUNDATION BANGLADESH,MIRPUR COLLEGE RD,MIRPUR 2",MIRPUR COLLEGE RD MIRPUR 2,23.803896127629443,90.36039345423372,Nominatim
463,9464,"MIRPUR DOHS SHOPPING COMPLEX,MIRPUR DOHS,DHAKA","MIRPUR DOHS SHOPPING COMPLEX,MIRPUR DOHS,DHAKA","MIRPUR DOHS SHOPPING COMPLEX,MIRPUR DOHS,DHAKA, Dhaka, Bangladesh",23.8379243,90.3755367,Nominatim
464,9465,"POPULAR DIAGONISTIC CENTER,BIR UTTAM RAFIQUL ISLAM AVE,NORTH BADDA","POPULAR DIAGONISTIC CENTER,BIR UTTAM RAFIQUL ISLAM AVE,NORTH BADDA",CENTER BIR UTTAM RAFIQUL ISLAM AVE NORTH BADDA,23.7869873,90.4256375,Nominatim
466,9467,"WEDDING MOMENTS , MOHAKHALI DOHS","WEDDING MOMENTS , MOHAKHALI DOHS",MOHAKHALI DOHS,23.78090465,90.39574251401798,Nominatim
467,9468,"49/5/F/2,BOUBAZAR GOLI,DHANMONDI","49/5/F/2,BOUBAZAR GOLI,DHANMONDI",BOUBAZAR GOLI DHANMONDI,23.753176019316378,90.3828697284767,Nominatim
468,9469,"BARDEM GENERAL HOSPITAL 2, FOR WOMEN AND CHILDREN , SEGUNBAGICHA RD","BARDEM GENERAL HOSPITAL 2, FOR WOMEN AND CHILDREN , SEGUNBAGICHA RD",SEGUNBAGICHA RD,23.7330446,90.4080986,Nominatim
469,9470,"MOSTAKIM KABAB (1982) MOHAMMADPUR , GENEVA CAMP","MOSTAKIM KABAB (1982) MOHAMMADPUR , GENEVA CAMP",(1982) MOHAMMADPUR GENEVA CAMP,23.76792615,90.365485358859,Nominatim
470,9471,"H 308/4, TILAPARA RD, KHILGAON","H 308/4, TILAPARA RD, KHILGAON",RD KHILGAON,23.74704385,90.42728137014691,Nominatim
472,9473,"A. GAFUR & RAHIM VILLA , CHADD UDDAN HOUSING , MOHAMMADPUR","A. GAFUR & RAHIM VILLA , CHADD UDDAN HOUSING , MOHAMMADPUR",UDDAN HOUSING MOHAMMADPUR,23.767491300000003,90.3589908782986,Nominatim
474,9475,"BRTA , DIYA BARI , UTTARA","BRTA , DIYA BARI , UTTARA",BARI UTTARA,23.8787794,90.40304788805264,Nominatim
475,9476,"APON JEWELLERS,SUVASTU IMAM SQUARE,GULSHAN 1,GULSHAN","APON JEWELLERS,SUVASTU IMAM SQUARE,GULSHAN 1,GULSHAN",GULSHAN 1 GULSHAN,23.780553,90.4169,Nominatim
476,9477,"BASHUDNHARA CITY SHOPPING COMPLEX , PANTHAPATH N, DHAKA","BASHUDNHARA CITY SHOPPING COMPLEX , PANTHAPATH N, DHAKA",PANTHAPATH N DHAKA,23.7525464,90.3833456,Nominatim
477,9478,"KAZI TELECOM , BEGUM ROKEYA SARANI , AGARGAON","KAZI TELECOM , BEGUM ROKEYA SARANI , AGARGAON",BEGUM ROKEYA SARANI AGARGAON,23.78650874005394,90.37730625458975,Nominatim
479,9480,"POWERPLAY,SOMAJ KOLLAN RD,WEST ARICHPUR","POWERPLAY,SOMAJ KOLLAN RD,WEST ARICHPUR",ARICHPUR,23.8902379,90.403206,Nominatim
480,9481,SHEWRAPARA BUS STAND,SHEWRAPARA BUS STAND,"SHEWRAPARA BUS STAND, Dhaka, Bangladesh",23.79058185,90.3712486490942,Nominatim
481,9482,"RANI COTTAGE,H 13/KA,GARDEN RD,WEST KAWRAN BAZAR","RANI COTTAGE,H 13/KA,GARDEN RD,WEST KAWRAN BAZAR",RD WEST KAWRAN BAZAR,23.7542714,90.3818545,Nominatim
483,9484,"DELTA HOSPITAL, DAR US SALAM ROAD , MOFIZBAGH HOUSING , SHAH ALI BAGH","DELTA HOSPITAL, DAR US SALAM ROAD , MOFIZBAGH HOUSING , SHAH ALI BAGH",HOUSING SHAH ALI BAGH,23.796489525551767,90.35991087001425,Nominatim
484,9485,"ARN TELECOM & COSMETICS CENTER , ZOO RD , MIRPUR 2","ARN TELECOM & COSMETICS CENTER , ZOO RD , MIRPUR 2",ZOO RD MIRPUR 2,23.80940382549808,90.35033682585812,Nominatim
485,9486,"LAKE,BEGUM ROKEYA SARANI,EAST MONIPUR","LAKE,BEGUM ROKEYA SARANI,EAST MONIPUR",BEGUM ROKEYA SARANI EAST MONIPUR,23.79118460904995,90.37548061585554,Nominatim
486,9487,"TALTOLA BUS STAND,AGARGAON","TALTOLA BUS STAND,AGARGAON",BUS STAND AGARGAON,23.79058185,90.3712486490942,Nominatim
487,9488,"HOUSE 1, ROAD 10 , SECTOR 3, UTTARA","HOUSE 1, ROAD 10 , SECTOR 3, UTTARA",ROAD 10 SECTOR 3 UTTARA,23.8641802,90.3961525,Nominatim
488,9489,"THE CITY BANK LTD AMEX LOUNGE DOMESITC TERMINAL HSIA,HAZRAT SHAHJALAL INTERNATONAL AIRPORT,KURMITOLA","THE CITY BANK LTD AMEX LOUNGE DOMESITC TERMINAL HSIA,HAZRAT SHAHJALAL INTERNATONAL AIRPORT,KURMITOLA",AIRPORT KURMITOLA,23.8191146,90.4097954,Nominatim
490,9491,"H 267,RD 10,BLOCK A,BASHUNDHARA R/A","H 267,RD 10,BLOCK A,BASHUNDHARA R/A",RD 10 BLOCK A BASHUNDHARA R/A,23.8166725,90.42942658076268,Nominatim
492,9493,"EASTERN NAHAR , 22/18 , BLOCK B , KHILJI ROAD , MOHAMMADPUR","EASTERN NAHAR , 22/18 , BLOCK B , KHILJI ROAD , MOHAMMADPUR",22/18 BLOCK B KHILJI ROAD MOHAMMADPUR,23.7715347,90.36718724587392,Nominatim
493,9494,"BANGLADESH BANK HIGH SCHOOL , STATION ROAD , ARAMBAG , KOMLAPUR","BANGLADESH BANK HIGH SCHOOL , STATION ROAD , ARAMBAG , KOMLAPUR",ROAD ARAMBAG KOMLAPUR,23.7295468,90.4262031,Nominatim
494,9495,"THE CITY BANK LTD AMEX LOUNGE
DOMESTIC TERMINAL HSIA,HAZRAT SHAHJALAL INTERNATIONAL AIRPORT,KURMITOLA","THE CITY BANK LTD AMEX LOUNGE
DOMESTIC TERMINAL HSIA,HAZRAT SHAHJALAL INTERNATIONAL AIRPORT,KURMITOLA",HAZRAT SHAHJALAL INTERNATIONAL AIRPORT KURMITOLA,23.8431441,90.40530318364304,Nominatim
495,9496,"SHERATON DHAKA , KEMAL ATATURK AVENUE BANANI","SHERATON DHAKA , KEMAL ATATURK AVENUE BANANI",ATATURK AVENUE BANANI,23.794191627296247,90.41222433349044,Nominatim
496,9497,"SHOPNO CARE BEAUTY PARLOUR & GYM,267/1,CHAPAKHANA MOR,AHMED NAGAR,MUKTI HOUSING,AHMED NAGAR","SHOPNO CARE BEAUTY PARLOUR & GYM,267/1,CHAPAKHANA MOR,AHMED NAGAR,MUKTI HOUSING,AHMED NAGAR",MUKTI HOUSING AHMED NAGAR,23.7858083,90.3717024,Nominatim
497,9498,"SONALI BANK LTD , HEAD OFFICE , MOTIJHEEL RD , DILKUSHA","SONALI BANK LTD , HEAD OFFICE , MOTIJHEEL RD , DILKUSHA",HEAD OFFICE MOTIJHEEL RD DILKUSHA,23.7264135,90.4211725,Nominatim
498,9499,"MIRPUR ADHUNIK HOSPITAL AND , DIAGONSTIC CENTER , RD 5 , MIRPUR 12","MIRPUR ADHUNIK HOSPITAL AND , DIAGONSTIC CENTER , RD 5 , MIRPUR 12",5 MIRPUR 12,23.8245014,90.3670234,Nominatim
499,9500,"MOHONA TELIVISION,H 7,BEGUM ROKEYA,MIRPUR 11","MOHONA TELIVISION,H 7,BEGUM ROKEYA,MIRPUR 11",H 7 BEGUM ROKEYA MIRPUR 11,23.8200967,90.36508485,Nominatim
501,9502,"SK DREAM HOUSE 744, ROAD NO 10 BASHUNDHARA R/A","SK DREAM HOUSE 744, ROAD NO 10 BASHUNDHARA R/A",BASHUNDHARA R/A,23.8166725,90.42942658076268,Nominatim
502,9503,"BAHADUR SHAH PARK,JOHNSON RD,BANGLA BAZAR","BAHADUR SHAH PARK,JOHNSON RD,BANGLA BAZAR",JOHNSON RD BANGLA BAZAR,23.711778654665576,90.4115375242531,Nominatim
503,9504,"WOMEN'S AND CHILDREN'S GENERAL HOSPITAL RESIDENTIAL AREA , DHANMONDI","WOMEN'S AND CHILDREN'S GENERAL HOSPITAL RESIDENTIAL AREA , DHANMONDI",GENERAL HOSPITAL RESIDENTIAL AREA DHANMONDI,23.7543441,90.3750222,Nominatim
504,9505,"SHAMIM ELECTRONICS , BLOCK A, BANASREE","SHAMIM ELECTRONICS , BLOCK A, BANASREE",BLOCK A BANASREE,23.7650771,90.42595431048149,Nominatim
505,9506,"267 , MALIBAGH , PABNA COLONY","267 , MALIBAGH , PABNA COLONY","267 , MALIBAGH , PABNA COLONY",23.74685134204471,90.41530542074108,Nominatim
506,9507,"RUPAYAN CITY UTTARA , NALBHOG","RUPAYAN CITY UTTARA , NALBHOG",UTTARA NALBHOG,23.8691067,90.3675303,Nominatim
509,9510,"TIMEFLIES,ROAD 11,BLOCK E,BANANI","TIMEFLIES,ROAD 11,BLOCK E,BANANI",BLOCK E BANANI,23.7927316,90.4069139,Nominatim
510,9511,"ROWSHAN MONZIL , 191/D , ROAD NO 5 , BLOCK A , BASHUNDHARA R/A","ROWSHAN MONZIL , 191/D , ROAD NO 5 , BLOCK A , BASHUNDHARA R/A",ROAD NO 5 BLOCK A BASHUNDHARA R/A,23.81086025,90.4272005,Nominatim
511,9512,"HOLIDAY INN DHAKA , SHAHID TAZUDDIN AHMED AVE , TEJGAON INDUSTRIAL AREA","HOLIDAY INN DHAKA , SHAHID TAZUDDIN AHMED AVE , TEJGAON INDUSTRIAL AREA",TEJGAON INDUSTRIAL AREA,23.7648783,90.405798,Nominatim
513,9514,"AMERICAN EMBASSY,MADANI AVE,BARIDHARA","AMERICAN EMBASSY,MADANI AVE,BARIDHARA",EMBASSY MADANI AVE BARIDHARA,23.7979715,90.4222444,Nominatim
514,9515,"HAZARIBAGH PARK,HAZARIBAGH","HAZARIBAGH PARK,HAZARIBAGH","HAZARIBAGH PARK,HAZARIBAGH, Dhaka, Bangladesh",23.72672085,90.37336270053262,Nominatim
516,9517,"DRAGON TOWER , DIT RD , CHOWDHURY PARA , MALIBAGH","DRAGON TOWER , DIT RD , CHOWDHURY PARA , MALIBAGH",MALIBAGH,23.7464464,90.4159433,Nominatim
517,9518,"ARAFAT ENTERPRISE,GULSHAN 1,GULSHAN","ARAFAT ENTERPRISE,GULSHAN 1,GULSHAN",GULSHAN 1 GULSHAN,23.780553,90.4169,Nominatim
518,9519,"DR FATEMA AKTER JOLY , KALLYANPUR , MIRPUR","DR FATEMA AKTER JOLY , KALLYANPUR , MIRPUR",KALLYANPUR MIRPUR,23.79332385,90.34607236500425,Nominatim
519,9520,"HOUSE 2, ROAD 9 , BLOCK G , BANANI DHAKA","HOUSE 2, ROAD 9 , BLOCK G , BANANI DHAKA",2 ROAD 9 BLOCK G BANANI DHAKA,23.789389719959743,90.40485255900694,Nominatim
520,9521,"CHANDRA VAN , KA 47/2 , JOAR SHAHARA BAZAR RD , JOAR SHAHARA","CHANDRA VAN , KA 47/2 , JOAR SHAHARA BAZAR RD , JOAR SHAHARA",RD JOAR SHAHARA,23.815687206080465,90.41690314859932,Nominatim
521,9522,"MIRPUR 11 METRO RAIL STATION, DHAKA","MIRPUR 11 METRO RAIL STATION, DHAKA",METRO RAIL STATION DHAKA,23.7319228,90.3966615,Nominatim
522,9523,"IBN SINA HOSPITAL MASJID , RESIDENTIAL AREA, DHANMONDI","IBN SINA HOSPITAL MASJID , RESIDENTIAL AREA, DHANMONDI",MASJID RESIDENTIAL AREA DHANMONDI,23.7397561,90.3783084,Nominatim
524,9526,"M.K. ELECTRONICS , SECTOR 4 , UTTARA","M.K. ELECTRONICS , SECTOR 4 , UTTARA",SECTOR 4 UTTARA,23.8641998,90.4028027,Nominatim
526,9529,"MUTUAL TRUST BANK , AIRPORT ROAD KURMITOLA , SECTOR 2","MUTUAL TRUST BANK , AIRPORT ROAD KURMITOLA , SECTOR 2",ROAD KURMITOLA SECTOR 2,23.827549806718935,90.39798362521832,Nominatim
527,9530,"OASIS CANTEEN , ROAD 28 , SECTOR 7 , UTTARA","OASIS CANTEEN , ROAD 28 , SECTOR 7 , UTTARA",ROAD 28 SECTOR 7 UTTARA,23.871387699978676,90.39855004977714,Nominatim
528,9531,"SANOFI , H 6/2/A, SEGUNBAGICHA RD , SEGUNBAGICHA","SANOFI , H 6/2/A, SEGUNBAGICHA RD , SEGUNBAGICHA",SEGUNBAGICHA RD SEGUNBAGICHA,23.7330446,90.4080986,Nominatim
529,9532,"RAJLOKKHI COMPLEX , SECTOR 3, UTTARA","RAJLOKKHI COMPLEX , SECTOR 3, UTTARA",COMPLEX SECTOR 3 UTTARA,23.8596981,90.4013022,Nominatim
530,9533,"H 44,RD 8,JANATA HOUSING,MOHAMMADPUR","H 44,RD 8,JANATA HOUSING,MOHAMMADPUR",JANATA HOUSING MOHAMMADPUR,23.796305,90.3653163,Nominatim
531,9534,"DIGITECH24,SHAHJADPUR,BADDA","DIGITECH24,SHAHJADPUR,BADDA",SHAHJADPUR BADDA,23.7807959,90.4262663,Nominatim
532,9535,"KAMALAPUR , RAILWAY STATION , KAMALAPUR","KAMALAPUR , RAILWAY STATION , KAMALAPUR","KAMALAPUR , RAILWAY STATION , KAMALAPUR",23.7305398,90.4268578953479,Nominatim
533,9536,"BEACON POINT DRUD ADDICTION TREATMENT CENTERR,GULSHAN 1,GULSHAN","BEACON POINT DRUD ADDICTION TREATMENT CENTERR,GULSHAN 1,GULSHAN",GULSHAN 1 GULSHAN,23.780553,90.4169,Nominatim
534,9537,"GAS ROAD , SHONIR AKHRA , JATRABARI","GAS ROAD , SHONIR AKHRA , JATRABARI",ROAD SHONIR AKHRA JATRABARI,23.7025075,90.4360327,Nominatim
536,9539,"JORIMUN VILLA,H 112,RD 1,MOHAKHALI","JORIMUN VILLA,H 112,RD 1,MOHAKHALI",H 112 RD 1 MOHAKHALI,23.791507579913457,90.39855947838156,Nominatim
537,9540,"WORD NO-98 ( BISHRAM ALAKA ) , BIMAN BANDAR , DHAKA","WORD NO-98 ( BISHRAM ALAKA ) , BIMAN BANDAR , DHAKA",) BIMAN BANDAR DHAKA,23.8513868,90.4086436,Nominatim
539,9542,"BANGABANDHU SHEIKH MUJIBUR RAHMAN NOVO THEATRE , BIJOY SARANI, OLD AIRPORT , TEJGAON","BANGABANDHU SHEIKH MUJIBUR RAHMAN NOVO THEATRE , BIJOY SARANI, OLD AIRPORT , TEJGAON",AIRPORT TEJGAON,23.7787587,90.38479490843017,Nominatim
540,9543,"HUSSAIN VILLA , HOUSE 4, ROAD 11 , SECTOR 12 , UTTARA","HUSSAIN VILLA , HOUSE 4, ROAD 11 , SECTOR 12 , UTTARA",HOUSE 4 ROAD 11 SECTOR 12 UTTARA,23.87235935768489,90.38192192345755,Nominatim
541,9544,"VINCI STYLES , HOUSE 34 , LAKE DR ROAD , SECTOR 7 , UTTARA","VINCI STYLES , HOUSE 34 , LAKE DR ROAD , SECTOR 7 , UTTARA",HOUSE 34 LAKE DR ROAD SECTOR 7 UTTARA,23.869649525350567,90.39377268469798,Nominatim
542,9545,"GAOCHIA CHISTIA STORE,ADABOR,MOHAMMADPUR","GAOCHIA CHISTIA STORE,ADABOR,MOHAMMADPUR",ADABOR MOHAMMADPUR,23.77375687138449,90.35743275320807,Nominatim
543,9546,"H 314/KHA , ULON RD , ULON","H 314/KHA , ULON RD , ULON",ULON RD ULON,23.762549942458143,90.41809627713944,Nominatim
544,9547,"POLWEL CARNATION SHOPPING CENTRE, SECTOR 8, UTTARA","POLWEL CARNATION SHOPPING CENTRE, SECTOR 8, UTTARA",SECTOR 8 UTTARA,23.8777293,90.4038344,Nominatim
545,9548,"EASTERN UNIVERSITY , RD 5 , DHANMONDI","EASTERN UNIVERSITY , RD 5 , DHANMONDI",5 DHANMONDI,23.7437264,90.38570159138916,Nominatim
548,9551,"EVERGREEN HIGH SCHOOL & COLLEGE , RD 15 , SECTOR 12 , UTTARA MODEL TOWN","EVERGREEN HIGH SCHOOL & COLLEGE , RD 15 , SECTOR 12 , UTTARA MODEL TOWN",& COLLEGE RD 15 SECTOR 12 UTTARA MODEL TOWN,23.8797645,90.3981262,Nominatim
549,9552,"MOGHOL HERITAGE,GREEN ROAD,DHANMONDI","MOGHOL HERITAGE,GREEN ROAD,DHANMONDI",GREEN ROAD DHANMONDI,23.745800719454447,90.38521101230953,Nominatim
550,9553,"LOTID HOMESTEAD , 383, AL HAJ ABDUS SOBHAN ROAD , BLOCK B , BASHUNDHARA R/A","LOTID HOMESTEAD , 383, AL HAJ ABDUS SOBHAN ROAD , BLOCK B , BASHUNDHARA R/A",AL HAJ ABDUS SOBHAN ROAD BLOCK B BASHUNDHARA R/A,23.81274325317733,90.42687858579993,Nominatim
552,9555,"PUBALI BANK  LIMITED,SONARGAON ROAD,PARIBAGH,HATIRPOOL","PUBALI BANK  LIMITED,SONARGAON ROAD,PARIBAGH,HATIRPOOL",SONARGAON ROAD PARIBAGH HATIRPOOL,23.740302,90.3930013,Nominatim
553,9556,"DELTA LIFE TOWER , H 37 , RD 90 , GULSHAN 2","DELTA LIFE TOWER , H 37 , RD 90 , GULSHAN 2",H 37 RD 90 GULSHAN 2,23.796301329779972,90.41541404645008,Nominatim
555,9558,"ANISHA-AMBULANCE SERVICE 24 HOURS , KALLYANPUR , MIRPUR","ANISHA-AMBULANCE SERVICE 24 HOURS , KALLYANPUR , MIRPUR",KALLYANPUR MIRPUR,23.79332385,90.34607236500425,Nominatim
556,9559,"S.R TRAVELS , 1ST COLONY , MAZAR ROAD , MIRPUR 1","S.R TRAVELS , 1ST COLONY , MAZAR ROAD , MIRPUR 1",1ST COLONY MAZAR ROAD MIRPUR 1,23.79188406403753,90.34856991725776,Nominatim
558,9561,"BOROBARI SHAHI JAME MASJID , BORO BARI MOSQUE RD , 1711","BOROBARI SHAHI JAME MASJID , BORO BARI MOSQUE RD , 1711",BORO BARI MOSQUE RD 1711,23.7796383,90.3550313,Nominatim
560,9563,"RAOWA CONVENTION HALL  , MOHAKHALI","RAOWA CONVENTION HALL  , MOHAKHALI",CONVENTION HALL MOHAKHALI,23.7806235,90.4135268,Nominatim
561,9564,"IBN SINA HOSPITAL, RD 15/A, DHANMONDI","IBN SINA HOSPITAL, RD 15/A, DHANMONDI",RD 15/A DHANMONDI,23.753917568953728,90.37321529498166,Nominatim
562,9565,"DEWAPPLES,RUPNAGAR RESIDENTIAL AREA,MIRPUR","DEWAPPLES,RUPNAGAR RESIDENTIAL AREA,MIRPUR",RESIDENTIAL AREA MIRPUR,23.8107214,90.36422614972622,Nominatim
563,9566,"BFC,25,RD 11,BANANI","BFC,25,RD 11,BANANI",25 RD 11 BANANI,23.790116,90.4080584,Nominatim
564,9567,"JAHANARA GARDEN , SECTOR 4 , UTTARA","JAHANARA GARDEN , SECTOR 4 , UTTARA",SECTOR 4 UTTARA,23.8641998,90.4028027,Nominatim
566,9569,"KADAMTALA, DHAKA , BANGLADESH","KADAMTALA, DHAKA , BANGLADESH","KADAMTALA, DHAKA , BANGLADESH",23.7372072,90.4389984,Nominatim
567,9570,"HAZRAT SHAHJALAL(RA),H 22,MITALI RD,WEST DHANMONDI","HAZRAT SHAHJALAL(RA),H 22,MITALI RD,WEST DHANMONDI",MITALI RD WEST DHANMONDI,23.742098882581285,90.36899550813716,Nominatim
569,9572,"FAISAL PHARMACY , SHYAMPUR , JURAIN","FAISAL PHARMACY , SHYAMPUR , JURAIN",SHYAMPUR JURAIN,23.6840321,90.4360088,Nominatim
570,9573,"AYESHA BED LIBRARY , BRAC UNIVERSITY , SOUTH BADDA","AYESHA BED LIBRARY , BRAC UNIVERSITY , SOUTH BADDA",BRAC UNIVERSITY SOUTH BADDA,23.7733146,90.42437100116996,Nominatim
572,9575,"NERDY BEAN COFFEE HAUS,RESIDENTIAL AREA,DHANMONDI","NERDY BEAN COFFEE HAUS,RESIDENTIAL AREA,DHANMONDI",RESIDENTIAL AREA DHANMONDI,23.7401262,90.3922751,Nominatim
573,9576,"MIZAN TELECOM , H 47 , NORTH RD , DHANMONDI","MIZAN TELECOM , H 47 , NORTH RD , DHANMONDI",RD DHANMONDI,23.7416423,90.385489,Nominatim
574,9577,TSC AUDITORIUM SHAHBAG RD TSC,TSC AUDITORIUM SHAHBAG RD TSC,SHAHBAG RD TSC,23.731732450000003,90.39560159732925,Nominatim
575,9578,"LABONI 1 , HOUSE 24, ROAD 9/A , DHANMONDI 1209","LABONI 1 , HOUSE 24, ROAD 9/A , DHANMONDI 1209",ROAD 9/A DHANMONDI 1209,23.746449967507136,90.38001914235608,Nominatim
576,9579,"GULBAGH JAME MOSJID,NEW ELEPHANT ROAD,DHANMONDI","GULBAGH JAME MOSJID,NEW ELEPHANT ROAD,DHANMONDI",NEW ELEPHANT ROAD DHANMONDI,23.73899199886276,90.38723863934514,Nominatim
578,9581,"TOLARBAG RESIDENTIAL AREA,MIRPUR 1","TOLARBAG RESIDENTIAL AREA,MIRPUR 1",RESIDENTIAL AREA MIRPUR 1,23.8278582,90.3615085,Nominatim
579,9582,"BRAC UNIVERSITY ( NEW CAMPUS ) , DIT RD , MERUL BADDA","BRAC UNIVERSITY ( NEW CAMPUS ) , DIT RD , MERUL BADDA",) DIT RD MERUL BADDA,23.7716566,90.4253879,Nominatim
580,9583,"HABIB MARKET,SECTOR 5,UTTARA","HABIB MARKET,SECTOR 5,UTTARA",SECTOR 5 UTTARA,23.8634958,90.3903093,Nominatim
581,9584,"RAFFLESIA SERVICED APARTMENT , GULSHAN 1 , GULSHAN","RAFFLESIA SERVICED APARTMENT , GULSHAN 1 , GULSHAN",GULSHAN 1 GULSHAN,23.780553,90.4169,Nominatim
582,9585,"COMFORT DIAGNOSTIC CENTER , H 167/B , GREEN RD","COMFORT DIAGNOSTIC CENTER , H 167/B , GREEN RD",167/B GREEN RD,23.7492011,90.3862305772282,Nominatim
583,9586,"CKD UROLOGY HOSPITAL , 32 , ROAD , NO 3 , MUKTI HOUSING , SHYAMOLI","CKD UROLOGY HOSPITAL , 32 , ROAD , NO 3 , MUKTI HOUSING , SHYAMOLI",HOUSING SHYAMOLI,23.75764015,90.36126122566084,Nominatim
584,9587,"HOUSE 25 , ROAD 4/A , SECTOR 5 , UTTARA","HOUSE 25 , ROAD 4/A , SECTOR 5 , UTTARA",ROAD 4/A SECTOR 5 UTTARA,23.8596981,90.4013022,Nominatim
585,9588,1002 CHARMVILLA APARTMENT 169 GREEN ROAD  DHAKA 1205,1002 CHARMVILLA APARTMENT 169 GREEN ROAD  DHAKA 1205,169 GREEN ROAD DHAKA 1205,23.74563331583241,90.38526218327044,Nominatim
586,9589,"CRISP, CHEF'S TABLE COURTSIDE , MADANI AVENUE, 100 FEET ROAD","CRISP, CHEF'S TABLE COURTSIDE , MADANI AVENUE, 100 FEET ROAD",MADANI AVENUE 100 FEET ROAD,23.80138446324961,90.45789113815827,Nominatim
587,9590,"I CARE COMPUTER SYSTEM , HOUSE 41/2/E/3 , HARI CHARAN RAY ROAD , FARIDABAD , GENDARIA , DHAKA 1204","I CARE COMPUTER SYSTEM , HOUSE 41/2/E/3 , HARI CHARAN RAY ROAD , FARIDABAD , GENDARIA , DHAKA 1204",RAY ROAD FARIDABAD GENDARIA DHAKA 1204,23.69094305,90.4304034,Nominatim
588,9591,"413, ROAD NO 16 , BLOCK A , BASUNDHARA R/A , DHAKA","413, ROAD NO 16 , BLOCK A , BASUNDHARA R/A , DHAKA",R/A DHAKA,23.83098745,90.37472594401892,Nominatim
589,9592,"RANGS BHABAN , H 117/A , BIJOY SARANI TEJGAON LINK RD , TEJKUNIPARA","RANGS BHABAN , H 117/A , BIJOY SARANI TEJGAON LINK RD , TEJKUNIPARA",BIJOY SARANI TEJGAON LINK RD TEJKUNIPARA,23.76654505,90.38311142789122,Nominatim
590,9593,"HOUSE 51,ROAD 16,SECTOR 14,UTTARA","HOUSE 51,ROAD 16,SECTOR 14,UTTARA",51 ROAD 16 SECTOR 14 UTTARA,23.865885618623548,90.3939390353242,Nominatim
592,9595,"NCC BANK LTD,H 6,MADANI AVE,GULSHAN 2","NCC BANK LTD,H 6,MADANI AVE,GULSHAN 2",H 6 MADANI AVE GULSHAN 2,23.79564680433265,90.41698757373412,Nominatim
593,9596,"NIHARIKA,H7,SIDDEHWARI RD,SIDDESHWARI","NIHARIKA,H7,SIDDEHWARI RD,SIDDESHWARI",RD SIDDESHWARI,23.744049697863503,90.40982511322724,Nominatim
594,9597,"ZEPHYR RESTAURANT & LOUNGE , CATHARSIS TOWER , HOUSE 133 , ROAD 12 , BLOCK E , BANANI","ZEPHYR RESTAURANT & LOUNGE , CATHARSIS TOWER , HOUSE 133 , ROAD 12 , BLOCK E , BANANI",BLOCK E BANANI,23.7927316,90.4069139,Nominatim
595,9598,"ARTISAN , 48 , ROAD 11 , BANANI","ARTISAN , 48 , ROAD 11 , BANANI",48 ROAD 11 BANANI,23.779395549777124,90.41577229998413,Nominatim
597,9600,"H 388/A , FREE SCHOOL ST , DHANMONDI","H 388/A , FREE SCHOOL ST , DHANMONDI",FREE SCHOOL ST DHANMONDI,23.74949755121176,90.38995193592724,Nominatim
598,9601,"FOUR SEASONS RESTAURANT , RESIDENTIAL AREA ,DHANMONDI","FOUR SEASONS RESTAURANT , RESIDENTIAL AREA ,DHANMONDI",RESIDENTIAL AREA DHANMONDI,23.7401262,90.3922751,Nominatim
599,9602,"HOUSE 29,BASABO MADARTEK ROAD,SOUTH BASABO,BASABO","HOUSE 29,BASABO MADARTEK ROAD,SOUTH BASABO,BASABO","HOUSE 29,BASABO MADARTEK ROAD,SOUTH BASABO,BASABO, Dhaka, Bangladesh",23.74028948875765,90.43266628159856,Nominatim
601,9604,"BRB HOSPITALS LIMITED , RAJABAZAR , PANTHAPATH","BRB HOSPITALS LIMITED , RAJABAZAR , PANTHAPATH",HOSPITALS LIMITED RAJABAZAR PANTHAPATH,23.7503909,90.3887485,Nominatim
602,9605,"BABULAND BADDA,NORTH BADDA","BABULAND BADDA,NORTH BADDA",BADDA NORTH BADDA,23.7854175,90.4279147,Nominatim
603,9606,"8/11, ROAD NO 7 N, LALMATIA MOHAMMADPUR","8/11, ROAD NO 7 N, LALMATIA MOHAMMADPUR",ROAD NO 7 N LALMATIA MOHAMMADPUR,23.75537305159108,90.36908837110948,Nominatim
604,9607,"JBL HOUSE COTTAGE,HOUSE 432,ROAD 8,BLOCK H, BASHUNDHARA R/A","JBL HOUSE COTTAGE,HOUSE 432,ROAD 8,BLOCK H, BASHUNDHARA R/A",BASHUNDHARA R/A,23.8166725,90.42942658076268,Nominatim
605,9608,"TAQWA RESTAURANR AND BIRYANI HOUSE,POSTOGOLA,SHYAMPUR","TAQWA RESTAURANR AND BIRYANI HOUSE,POSTOGOLA,SHYAMPUR",BIRYANI HOUSE POSTOGOLA SHYAMPUR,23.6936253,90.4355575,Nominatim
606,9609,SAEED SUTOS COCA-COLA ROAD VATARA,SAEED SUTOS COCA-COLA ROAD VATARA,ROAD VATARA,23.7985609,90.42463690274424,Nominatim
607,9610,"SMC TOWER , RD 17 , BANANI","SMC TOWER , RD 17 , BANANI","SMC TOWER , RD 17 , BANANI, Dhaka, Bangladesh",23.79323025,90.40499785,Nominatim
608,9612,"MARK WRAPPER PRINTING INDUSTRIES LRD,MIRPARA,DEMRA","MARK WRAPPER PRINTING INDUSTRIES LRD,MIRPARA,DEMRA",MIRPARA DEMRA,23.730995,90.4888902,Nominatim
609,9613,"RESOURCES ROJONIGONDHA , ROAD 5 , MONSURABAD , ADABAR , MOHAMMADPUR","RESOURCES ROJONIGONDHA , ROAD 5 , MONSURABAD , ADABAR , MOHAMMADPUR",ADABAR MOHAMMADPUR,23.7711654,90.3593643,Nominatim
610,9614,"ROAD 4,BLOCK C,BASHUNDHARA R/A","ROAD 4,BLOCK C,BASHUNDHARA R/A",BLOCK C BASHUNDHARA R/A,23.8166725,90.42942658076268,Nominatim
611,9615,"ibrahim cardiac hospital and research institute, footoverbridge , shahbag","ibrahim cardiac hospital and research institute, footoverbridge , shahbag",footoverbridge shahbag,23.73306715,90.3848881,Nominatim
612,9616,"MOTAHARA TOWER,H 393 & 39/4,RANKIN ST,WARI","MOTAHARA TOWER,H 393 & 39/4,RANKIN ST,WARI",& 39/4 RANKIN ST WARI,23.720398901394024,90.4164479340327,Nominatim
613,9617,"H 48,RD 14,NIKUNJA 2","H 48,RD 14,NIKUNJA 2","H 48,RD 14,NIKUNJA 2, Dhaka, Bangladesh",23.833210826530724,90.41666697157736,Nominatim
614,9618,"ABAKASH , H 84,  RD 13, SECTOR 13 , UTTARA","ABAKASH , H 84,  RD 13, SECTOR 13 , UTTARA",H 84 RD 13 SECTOR 13 UTTARA,23.866875185095157,90.39728735137751,Nominatim
615,9619,"109/A , RUPAYAN  SHARIATULLAH TOWER , KAZI OFFICE LANE , BORO MOGHBAZAR","109/A , RUPAYAN  SHARIATULLAH TOWER , KAZI OFFICE LANE , BORO MOGHBAZAR",BORO MOGHBAZAR,23.748598,90.404016,Nominatim
616,9620,"MOHIT CASTLE , 23 , ROAD 13/A , DHANMONDI","MOHIT CASTLE , 23 , ROAD 13/A , DHANMONDI",23 ROAD 13/A DHANMONDI,23.750506909487008,90.37320400263474,Nominatim
617,9621,"DIPA MEDICAL HALL , SOUTH BISHIL , MIRPUR 1","DIPA MEDICAL HALL , SOUTH BISHIL , MIRPUR 1",MEDICAL HALL SOUTH BISHIL MIRPUR 1,23.7952676,90.352181,Nominatim
618,9622,"AUTO CHOICE , BORO MOGHBAZAR","AUTO CHOICE , BORO MOGHBAZAR",BORO MOGHBAZAR,23.748598,90.404016,Nominatim
619,9623,"JATRABARI IDEAL HIGH SCHOOL , JATRABARI","JATRABARI IDEAL HIGH SCHOOL , JATRABARI","JATRABARI IDEAL HIGH SCHOOL , JATRABARI, Dhaka, Bangladesh",23.7113718,90.42975532497356,Nominatim
622,9626,"THE CHOCOLATE ROOM,GULSHAN 2,GULSHAN","THE CHOCOLATE ROOM,GULSHAN 2,GULSHAN",GULSHAN 2 GULSHAN,23.7947191,90.4136986,Nominatim
623,9627,"BRAC BANK LIMITED , WEST RAJABAZAR , INIDIRA ROAD, PANTHAPATH","BRAC BANK LIMITED , WEST RAJABAZAR , INIDIRA ROAD, PANTHAPATH",ROAD PANTHAPATH,23.7506625,90.3876017,Nominatim
624,9628,"URBAN GALAXY APARTMENT,RESIDENTIAL AREA,DHANMONDI","URBAN GALAXY APARTMENT,RESIDENTIAL AREA,DHANMONDI",APARTMENT RESIDENTIAL AREA DHANMONDI,23.740318,90.37423395,Nominatim
625,9629,"THE ZAHID RESIDENCE , SECTOR 5 , UTTARA","THE ZAHID RESIDENCE , SECTOR 5 , UTTARA",SECTOR 5 UTTARA,23.8634958,90.3903093,Nominatim
626,9631,"RADISSON , H 2/A-B , RD 2 , MOHAMMADPUR","RADISSON , H 2/A-B , RD 2 , MOHAMMADPUR",RD 2 MOHAMMADPUR,23.7567367,90.3615861,Nominatim
627,9632,"PACIFIC LAKE VIEW HOTEL & RESTAURANT,RD 23C,GULSHAN 1","PACIFIC LAKE VIEW HOTEL & RESTAURANT,RD 23C,GULSHAN 1",RD 23C GULSHAN 1,23.781722349126184,90.41323727444905,Nominatim
628,9633,"HOUSE 73,ROAD 4,BLOCK C,BANANI","HOUSE 73,ROAD 4,BLOCK C,BANANI",73 ROAD 4 BLOCK C BANANI,23.79281487931836,90.40153295056912,Nominatim
629,9634,"GOLF CAFE,ARMY GOLD CLUB,DHAKA CANTONMENT","GOLF CAFE,ARMY GOLD CLUB,DHAKA CANTONMENT",DHAKA CANTONMENT,23.81583815,90.41049407160516,Nominatim
631,9636,"WESTERN ROAD , BANANI DOHS , DHAKA CANTONMENT , 1000","WESTERN ROAD , BANANI DOHS , DHAKA CANTONMENT , 1000",DOHS DHAKA CANTONMENT 1000,23.811519869084368,90.41112420001164,Nominatim
632,9637,"FLEX FITNESS,KATHALBAGAN,GREEN ROAD","FLEX FITNESS,KATHALBAGAN,GREEN ROAD",KATHALBAGAN GREEN ROAD,23.745800719454447,90.38521101230953,Nominatim
634,9639,"SHEWRAPARA METRO RAIL STATION , DHAKA","SHEWRAPARA METRO RAIL STATION , DHAKA",METRO RAIL STATION DHAKA,23.7319228,90.3966615,Nominatim
635,9640,"BANGLA CAT PARK VIEW OFFICE , BLOCK D , BANANI","BANGLA CAT PARK VIEW OFFICE , BLOCK D , BANANI",BLOCK D BANANI,23.7911832,90.4046244049488,Nominatim
636,9641,"BOATGHAT MASJID, KHILKHET NAMAPARA RD, UTTAR PARA , KHILKHET","BOATGHAT MASJID, KHILKHET NAMAPARA RD, UTTAR PARA , KHILKHET",KHILKHET,23.8351324,90.4351120713632,Nominatim
637,9642,"ENA FESTOONS, H 57/A,57/1 B,LAKE CIRCUS,KALABAGAN","ENA FESTOONS, H 57/A,57/1 B,LAKE CIRCUS,KALABAGAN",LAKE CIRCUS KALABAGAN,23.74748621537525,90.38240596977576,Nominatim
638,9643,"LA GUSTOSA KITCHEN,RESIDENTIAL AREA,DHANMONDI","LA GUSTOSA KITCHEN,RESIDENTIAL AREA,DHANMONDI",KITCHEN RESIDENTIAL AREA DHANMONDI,23.7388798,90.3754682,Nominatim
639,9644,"GAUS NAGAR JAME MASJID,NEW ESKATON","GAUS NAGAR JAME MASJID,NEW ESKATON",JAME MASJID NEW ESKATON,23.7441047,90.39652484037674,Nominatim
640,9645,"KINGS KABAB AND RESTAURANT , RD 3, NIKETON","KINGS KABAB AND RESTAURANT , RD 3, NIKETON",RD 3 NIKETON,23.776610297026345,90.41253535131771,Nominatim
641,9646,"PARTY HOUSES RD,RAJARBAG,SHANTIBAGH,MALIBAGH","PARTY HOUSES RD,RAJARBAG,SHANTIBAGH,MALIBAGH",RD RAJARBAG SHANTIBAGH MALIBAGH,23.7502305,90.4147678,Nominatim
643,9648,"IDB BHABAN , BEGUM ROKEYA SHARANI , AGARGAON , DHAKA","IDB BHABAN , BEGUM ROKEYA SHARANI , AGARGAON , DHAKA",BHABAN BEGUM ROKEYA SHARANI AGARGAON DHAKA,23.78265345,90.37863754461236,Nominatim
646,9651,"NHA GARDEN CITY,F BLOCK,RING ROAD,MOHAMMADPUR","NHA GARDEN CITY,F BLOCK,RING ROAD,MOHAMMADPUR",F BLOCK RING ROAD MOHAMMADPUR,23.7689939,90.3588559,Nominatim
649,9655,"FIT & FINE PHYSIOTHERAPY CENTRE , SECTOR 13 , UTTARA","FIT & FINE PHYSIOTHERAPY CENTRE , SECTOR 13 , UTTARA",SECTOR 13 UTTARA,23.8713405,90.3875569,Nominatim
650,9656,"OPEDIA TECHNOLOGIES LIMITED SHAYMOLI , MOHAMMADPUR","OPEDIA TECHNOLOGIES LIMITED SHAYMOLI , MOHAMMADPUR",SHAYMOLI MOHAMMADPUR,23.7592876,90.3526656,Nominatim
653,9660,"RELATIVE LIVING APARTMENT , NOYATOLA , MOGHBAZAR","RELATIVE LIVING APARTMENT , NOYATOLA , MOGHBAZAR",NOYATOLA MOGHBAZAR,23.74303954944302,90.41565586012972,Nominatim
654,9661,"VILLA , SECTOR 14 , UTTARA","VILLA , SECTOR 14 , UTTARA",SECTOR 14 UTTARA,23.8671966,90.3894678,Nominatim
655,9662,"KODOMTOLI BUS STOP,KERANIGONJ","KODOMTOLI BUS STOP,KERANIGONJ",BUS STOP KERANIGONJ,23.695502,90.3985875,Nominatim
656,9663,"FORTUNE SQUARE CONVENTION , RESIDENTIAL AREA , DHANMONDI","FORTUNE SQUARE CONVENTION , RESIDENTIAL AREA , DHANMONDI",CONVENTION RESIDENTIAL AREA DHANMONDI,23.7404416,90.3827683,Nominatim
658,9665,"HERFY , BLOCK C , BANANI","HERFY , BLOCK C , BANANI",BLOCK C BANANI,23.7892369,90.40277425,Nominatim
659,9666,"THE ENT AND HEAD NECK CANCER HOSPITAL AND INSTITUTE,NORTH SHYAMOLI","THE ENT AND HEAD NECK CANCER HOSPITAL AND INSTITUTE,NORTH SHYAMOLI",HOSPITAL AND INSTITUTE NORTH SHYAMOLI,23.7723586,90.368105,Nominatim
660,9668,"BDR MARKET , SECTOR 6 , UTTARA","BDR MARKET , SECTOR 6 , UTTARA","BDR MARKET , SECTOR 6 , UTTARA, Dhaka, Bangladesh",23.8730223,90.4000877,Nominatim
661,9669,"286,D BLOCK 9 NO ROAD,BLOCK D,BASHUNDHARA R/A","286,D BLOCK 9 NO ROAD,BLOCK D,BASHUNDHARA R/A",D BLOCK 9 NO ROAD BLOCK D BASHUNDHARA R/A,23.81426851466041,90.43344213144272,Nominatim
662,9670,"ARTISTIC DENTAL AID,ROAD 2,BLOCK B,NIKETON,GULSHAN","ARTISTIC DENTAL AID,ROAD 2,BLOCK B,NIKETON,GULSHAN",ROAD 2 BLOCK B NIKETON GULSHAN,23.77371225,90.4120028,Nominatim
663,9671,"garden value , h 51 /1, circular rd , hatirpool","garden value , h 51 /1, circular rd , hatirpool",rd hatirpool,23.74158115,90.39166012523108,Nominatim
664,9672,"NAYANAGAR BAITU AMAN JAME MASJID,NAYA NAGAR RD,DHAKA 1212","NAYANAGAR BAITU AMAN JAME MASJID,NAYA NAGAR RD,DHAKA 1212",NAYA NAGAR RD DHAKA 1212,23.80028360485067,90.42387046736896,Nominatim
665,9673,"NAVANA TOWER , GULSHAN  1 , GULSHAN","NAVANA TOWER , GULSHAN  1 , GULSHAN","NAVANA TOWER , GULSHAN  1 , GULSHAN, Dhaka, Bangladesh",23.78053215,90.4161301162006,Nominatim
666,9674,"SHIMANTO SQUARE,RESIDENTIAL AREA,DHANMONDI","SHIMANTO SQUARE,RESIDENTIAL AREA,DHANMONDI","SHIMANTO SQUARE,RESIDENTIAL AREA,DHANMONDI, Dhaka, Bangladesh",23.7380202,90.3773488533718,Nominatim
667,9675,"BHAI BHAI PORDA GALLERY,BLOCK E,BANASREE","BHAI BHAI PORDA GALLERY,BLOCK E,BANASREE",BLOCK E BANASREE,23.76135935,90.4351191404092,Nominatim
668,9677,"MA FURNITURE,RAYERBAG,SONIR AKHRA","MA FURNITURE,RAYERBAG,SONIR AKHRA",RAYERBAG SONIR AKHRA,23.70354095,90.4494937426856,Nominatim
669,9678,"ROWSHAN ARA HOMOEO HALL , SOLMAID , VATARA","ROWSHAN ARA HOMOEO HALL , SOLMAID , VATARA",SOLMAID VATARA,23.7985609,90.42463690274424,Nominatim
670,9679,"H 215/8 , EAST KUNJABAN RD , EAST RAMPURA","H 215/8 , EAST KUNJABAN RD , EAST RAMPURA",RD EAST RAMPURA,23.7588451,90.4184812175,Nominatim
671,9680,"NANNU , MARKET , RD 4 , BLOCK A , MIRPUR 11","NANNU , MARKET , RD 4 , BLOCK A , MIRPUR 11",4 BLOCK A MIRPUR 11,23.81813505,90.3747652132889,Nominatim
672,9681,"HOUSE 35/10,ROAD 11,SHEKHERTEK,PC CULTURE SOCIETY,ADABOR,DHAKA 1207","HOUSE 35/10,ROAD 11,SHEKHERTEK,PC CULTURE SOCIETY,ADABOR,DHAKA 1207",PC CULTURE SOCIETY ADABOR DHAKA 1207,23.7664141,90.3578379,Nominatim
674,9683,JANATA HOUSING AGARGAON DHAKA,JANATA HOUSING AGARGAON DHAKA,"JANATA HOUSING AGARGAON DHAKA, Dhaka, Bangladesh",23.7929911,90.3652989,Nominatim
675,9684,"JHUT POTTI BOU BAZAR , BENAROSHI PALLI RD , BLOCK C , MIRPUR 10","JHUT POTTI BOU BAZAR , BENAROSHI PALLI RD , BLOCK C , MIRPUR 10",BLOCK C MIRPUR 10,23.81020335,90.37297612137104,Nominatim
676,9685,"INSAF BARAKAH KIDNEY & GENERAL HOSPITAL , SHAHID TAJUDDIN AHMED SARANI , MOGBAZAR","INSAF BARAKAH KIDNEY & GENERAL HOSPITAL , SHAHID TAJUDDIN AHMED SARANI , MOGBAZAR",SARANI MOGBAZAR,23.75084682914292,90.40223429216692,Nominatim
677,9686,"HOUSE 6,ROAD 25,SECTOR 7,UTTARA","HOUSE 6,ROAD 25,SECTOR 7,UTTARA","HOUSE 6,ROAD 25,SECTOR 7,UTTARA",23.87282514362877,90.3954538151972,Nominatim
679,9688,"SHATARUPA DIAMOND , GREEN ROAD , PANTHAPATH","SHATARUPA DIAMOND , GREEN ROAD , PANTHAPATH",GREEN ROAD PANTHAPATH,23.7506802,90.3872005,Nominatim
680,9689,"TRIBENI RESTURENT,VASHANTEK MIRPUR RD,NIRJHAR,DHAKA CANTONMENT","TRIBENI RESTURENT,VASHANTEK MIRPUR RD,NIRJHAR,DHAKA CANTONMENT",DHAKA CANTONMENT,23.81583815,90.41049407160516,Nominatim
681,9690,"SILVER SPRING , H 76 , INDIRA RD , FARMGATE","SILVER SPRING , H 76 , INDIRA RD , FARMGATE",H 76 INDIRA RD FARMGATE,23.758205959988747,90.38884026330165,Nominatim
682,9691,"937 , OUTER CIRCULAR ROAD , MOGBAZAR","937 , OUTER CIRCULAR ROAD , MOGBAZAR","937 , OUTER CIRCULAR ROAD , MOGBAZAR, Dhaka, Bangladesh",23.74914669981144,90.40576892030614,Nominatim
683,9692,"BOSILA BUS STOP , SAHEED BUDHIJIBI BRIDGE , BOSILA","BOSILA BUS STOP , SAHEED BUDHIJIBI BRIDGE , BOSILA",BRIDGE BOSILA,23.7450945,90.3475527,Nominatim
684,9693,"london college of legan studies (south)  , 58, kalabagan 1st lane , dhanmondi","london college of legan studies (south)  , 58, kalabagan 1st lane , dhanmondi",studies (south) 58 kalabagan 1st lane dhanmondi,23.74751645,90.38193165,Nominatim
686,9695,"GRAMEEN BANK , MIRPUR COLLEGE RD , MIRPUR 2","GRAMEEN BANK , MIRPUR COLLEGE RD , MIRPUR 2",MIRPUR COLLEGE RD MIRPUR 2,23.803896127629443,90.36039345423372,Nominatim
687,9696,"SQUARE HOISPITAL LTD , PANTHAPATH RD , KALABAGAN","SQUARE HOISPITAL LTD , PANTHAPATH RD , KALABAGAN",PANTHAPATH RD KALABAGAN,23.7465983,90.38515483778934,Nominatim
688,9697,"NOBORATRI-HALL 4,INTERNATIONAL CONVENTION CITY BASUNDHARA (ICCB) PURBACHAL 300 FEET ROAD,DHAKA","NOBORATRI-HALL 4,INTERNATIONAL CONVENTION CITY BASUNDHARA (ICCB) PURBACHAL 300 FEET ROAD,DHAKA",PURBACHAL 300 FEET ROAD DHAKA,23.83721015,90.5039635,Nominatim
689,9698,"JORPUKUR PLAYGROUND,TILPAPARA,KHILGAON","JORPUKUR PLAYGROUND,TILPAPARA,KHILGAON",PLAYGROUND TILPAPARA KHILGAON,23.74098485,90.42417137329284,Nominatim
691,9700,"SINHA SALEHA COTTAGE , 241 , FREE SCHOOL STREET , DHANMONDI","SINHA SALEHA COTTAGE , 241 , FREE SCHOOL STREET , DHANMONDI",241 FREE SCHOOL STREET DHANMONDI,23.74949755121176,90.38995193592724,Nominatim
692,9701,"GOURI MOTH MANDIR , NARINDA RD","GOURI MOTH MANDIR , NARINDA RD",MANDIR NARINDA RD,23.7173276,90.4212511,Nominatim
693,9702,"AIRPORT CARGO TERMINAL PARKING , HAZRAT SHAHJALAL INTERNATIONAL AIRPORT","AIRPORT CARGO TERMINAL PARKING , HAZRAT SHAHJALAL INTERNATIONAL AIRPORT",HAZRAT SHAHJALAL INTERNATIONAL AIRPORT,23.8431441,90.40530318364304,Nominatim
694,9703,"MOHAMMAD SOHEL , NARINDA , WARI","MOHAMMAD SOHEL , NARINDA , WARI",SOHEL NARINDA WARI,23.7178049,90.4252562,Nominatim
695,9704,"BAF SHAHEEN ENGLISH MEDIUM SCHOOL ( BAF SEMS ), RD 31 , MOHAKHALI DOHS","BAF SHAHEEN ENGLISH MEDIUM SCHOOL ( BAF SEMS ), RD 31 , MOHAKHALI DOHS","BAF SHAHEEN ENGLISH MEDIUM SCHOOL ( BAF SEMS ), RD 31 , MOHAKHALI DOHS, Dhaka, Bangladesh",23.77745845,90.39259221769314,Nominatim
697,9706,"KONDA,KERANIGANJ,DHAKA","KONDA,KERANIGANJ,DHAKA",KERANIGANJ DHAKA,23.7005013,90.3826441,Nominatim
698,9707,DHAKA RESIDENTIAL MODEL COLLEGE MIRPUR RD MOHAMMADPUR,DHAKA RESIDENTIAL MODEL COLLEGE MIRPUR RD MOHAMMADPUR,"DHAKA RESIDENTIAL MODEL COLLEGE MIRPUR RD MOHAMMADPUR, Dhaka, Bangladesh",23.76546405,90.36765946546952,Nominatim
699,9708,"xindian restaurant , h 55 , 55/a , rd 27 , dhanmondi","xindian restaurant , h 55 , 55/a , rd 27 , dhanmondi",rd 27 dhanmondi,23.7560325,90.3757211,Nominatim
700,9709,"MIRPUR DOHS CENTRAL MASJID , MIRPUR DOHS MAIN RD , MIRPUR DOHS","MIRPUR DOHS CENTRAL MASJID , MIRPUR DOHS MAIN RD , MIRPUR DOHS",RD MIRPUR DOHS,23.8371883,90.3689834,Nominatim
701,9710,"2/B , GREEN ROAD , DHANMONDI","2/B , GREEN ROAD , DHANMONDI","2/B , GREEN ROAD , DHANMONDI, Dhaka, Bangladesh",23.74163325,90.38395698214588,Nominatim
702,9711,"NOTHING BUT A BRAND 100% EXPORT,BLOCK D,BANASREE","NOTHING BUT A BRAND 100% EXPORT,BLOCK D,BANASREE",BLOCK D BANASREE,23.76345095,90.4315036,Nominatim
703,9712,"THE NET HEADS EAST KAZIPARA , MIRPUR","THE NET HEADS EAST KAZIPARA , MIRPUR",EAST KAZIPARA MIRPUR,23.799424917703774,90.38475225251112,Nominatim
704,9713,"MASJID E BAITUL AKSA,JASHIMUDDIN RD,SECTOR 5,UTTARA","MASJID E BAITUL AKSA,JASHIMUDDIN RD,SECTOR 5,UTTARA",JASHIMUDDIN RD SECTOR 5 UTTARA,23.860199291233847,90.39062567810106,Nominatim
705,9714,"MAZAA,TAJMAHAL ROAD,MOHAMMADPUR","MAZAA,TAJMAHAL ROAD,MOHAMMADPUR",TAJMAHAL ROAD MOHAMMADPUR,23.76432954553832,90.36133094645749,Nominatim
707,9716,"SECTOR 6,UTTARA","SECTOR 6,UTTARA","SECTOR 6,UTTARA, Dhaka, Bangladesh",23.8728982,90.4030022,Nominatim
708,9717,"DUTCH BANGLA BANK ATM BOOTH , 171, ROAD 5 , BLOCK C , MIRPUR 12 , 1000","DUTCH BANGLA BANK ATM BOOTH , 171, ROAD 5 , BLOCK C , MIRPUR 12 , 1000",5 BLOCK C MIRPUR 12 1000,23.8151503,90.37515445,Nominatim
710,9719,"JANATA BANK LIMITED , JIGATOLA ROAD , JIGATOLA , DHANMONDI","JANATA BANK LIMITED , JIGATOLA ROAD , JIGATOLA , DHANMONDI","JANATA BANK LIMITED , JIGATOLA ROAD , JIGATOLA , DHANMONDI, Dhaka, Bangladesh",23.7333389,90.3845949,Nominatim
711,9720,"DEHUMIDFIER SHOP , SECTOR 6 , UTTARA","DEHUMIDFIER SHOP , SECTOR 6 , UTTARA",SECTOR 6 UTTARA,23.8728982,90.4030022,Nominatim
712,9721,PARLIMENT SECRETARIAT RESIDENTIAL COMPLEX W AGARGAON,PARLIMENT SECRETARIAT RESIDENTIAL COMPLEX W AGARGAON,COMPLEX W AGARGAON,23.78306815,90.37609835,Nominatim
713,9722,"HAJJ CAMP,HAZI CAMP RD,NEW AIRPORT","HAJJ CAMP,HAZI CAMP RD,NEW AIRPORT",CAMP HAZI CAMP RD NEW AIRPORT,23.8515115,90.4151825,Nominatim
715,9724,"BANAGRAM LN,JUGINAGAR RD,WARI","BANAGRAM LN,JUGINAGAR RD,WARI",JUGINAGAR RD WARI,23.718506636952142,90.41567132035732,Nominatim
716,9725,"AEGIS,EDUCARE,KAKRAIL,RAMNA","AEGIS,EDUCARE,KAKRAIL,RAMNA",KAKRAIL RAMNA,23.7385398,90.4071475,Nominatim
717,9726,"BD FOODS LTD HEAD OFFICE , GULSHAN 2, GULSHAN","BD FOODS LTD HEAD OFFICE , GULSHAN 2, GULSHAN",OFFICE GULSHAN 2 GULSHAN,23.7927987,90.4090338,Nominatim
718,9727,"SONALI SHORGO , H 4 , FELANI RD , GULSHAN 1","SONALI SHORGO , H 4 , FELANI RD , GULSHAN 1",FELANI RD GULSHAN 1,23.776335305465743,90.4175609179894,Nominatim
719,9728,"RD 5 , BLOCK H, MIRPUR 2","RD 5 , BLOCK H, MIRPUR 2",5 BLOCK H MIRPUR 2,23.8036623,90.35795695,Nominatim
720,9729,"MADINA MUNWARAH JAME MASJID , WASA RD , MANIKNAGAR , SABUJBAG","MADINA MUNWARAH JAME MASJID , WASA RD , MANIKNAGAR , SABUJBAG",MASJID WASA RD MANIKNAGAR SABUJBAG,23.7363666,90.4333169,Nominatim
721,9730,"CHOWDHURY GREEN CREST , H 10 / A, GREEN RD , DHANMONDI","CHOWDHURY GREEN CREST , H 10 / A, GREEN RD , DHANMONDI",H 10 / A GREEN RD DHANMONDI,23.745800719454447,90.38521101230953,Nominatim
722,9731,"charulata pre school , rd 3, block a, mirpur 12","charulata pre school , rd 3, block a, mirpur 12",block a mirpur 12,23.8182143,90.37940845,Nominatim
724,9733,"THEO CLOTHING BD, AHMEDBAGH , BASHABO","THEO CLOTHING BD, AHMEDBAGH , BASHABO",BASHABO,23.7405474,90.4333478,Nominatim
725,9734,"EASTERN MOTORS LTD , INDUSTRIAL AREA TEJGAON","EASTERN MOTORS LTD , INDUSTRIAL AREA TEJGAON",MOTORS LTD INDUSTRIAL AREA TEJGAON,23.7541392,90.4006151,Nominatim
726,9735,"NAVANA PROBANI RIDGEDALE,AVENUE 5,SECTION 11,MIRPUR,DHAKA","NAVANA PROBANI RIDGEDALE,AVENUE 5,SECTION 11,MIRPUR,DHAKA",5 SECTION 11 MIRPUR DHAKA,23.8071648,90.372690594791,Nominatim
729,9738,"CHILLOX , AMM CENTER , RD 3A , DHANMONDI","CHILLOX , AMM CENTER , RD 3A , DHANMONDI",RD 3A DHANMONDI,23.740238910948893,90.3762621597081,Nominatim
730,9739,"SHAKH VILLA,H 34/1,RD 1,PC CULTURE HOUSING SOCIETY,MOHAMMADPUR","SHAKH VILLA,H 34/1,RD 1,PC CULTURE HOUSING SOCIETY,MOHAMMADPUR",RD 1 PC CULTURE HOUSING SOCIETY MOHAMMADPUR,23.77221031511343,90.36433941941824,Nominatim
731,9740,"BSMMU,OUTDOOR(MEDICINE),PORIBAGH,SHAHBAGH","BSMMU,OUTDOOR(MEDICINE),PORIBAGH,SHAHBAGH",SHAHBAGH,23.7400837,90.3960061,Nominatim
732,9741,"NINAKABBO , BIR UTTAM MIR SHAWKAT SARAK , EAST NAKHALPARA , NIKETAN N","NINAKABBO , BIR UTTAM MIR SHAWKAT SARAK , EAST NAKHALPARA , NIKETAN N",BIR UTTAM MIR SHAWKAT SARAK EAST NAKHALPARA NIKETAN N,23.770334395602173,90.40780325730698,Nominatim
735,9744,"WALTON,DHAKA CHITTAGONG HIGHWAY,SIGN BOARD,SIDDHIRGANJ,NARAYANGANJ,1361","WALTON,DHAKA CHITTAGONG HIGHWAY,SIGN BOARD,SIDDHIRGANJ,NARAYANGANJ,1361",CHITTAGONG HIGHWAY SIGN BOARD SIDDHIRGANJ NARAYANGANJ 1361,23.8333,90.3333,OpenCage
737,9746,"BANGLADESH ROAD TRANSPORT AUTHORITY ( BRTA ) , UTTARA , DHAKA 1230 , BANGLADESH","BANGLADESH ROAD TRANSPORT AUTHORITY ( BRTA ) , UTTARA , DHAKA 1230 , BANGLADESH",) UTTARA DHAKA 1230 BANGLADESH,23.8693275,90.3926893,Nominatim
738,9747,"BEACON GROUP , H 165 , TOYENBEE CIRCULAR RD , MOTIJHEEL","BEACON GROUP , H 165 , TOYENBEE CIRCULAR RD , MOTIJHEEL",CIRCULAR RD MOTIJHEEL,23.7221011,90.4165215,Nominatim
739,9748,"ANIK INCORPORATED , EASTERN HOUSING , MIRPUR","ANIK INCORPORATED , EASTERN HOUSING , MIRPUR",EASTERN HOUSING MIRPUR,23.814818136793384,90.34084801974866,Nominatim
740,9749,"1ST CUP COFFEE BUSINESS OUTLET , ROAD 2 , SECTOR 3, UTTARA","1ST CUP COFFEE BUSINESS OUTLET , ROAD 2 , SECTOR 3, UTTARA",ROAD 2 SECTOR 3 UTTARA,23.8641802,90.3961525,Nominatim
741,9750,"RD 130,GULSHAN 1","RD 130,GULSHAN 1","RD 130,GULSHAN 1, Dhaka, Bangladesh",23.782046715963936,90.41773704538076,Nominatim
743,9753,"ROAD 13/C , HOUSE 18 , BANANI","ROAD 13/C , HOUSE 18 , BANANI","ROAD 13/C , HOUSE 18 , BANANI",23.779128285330074,90.41290952275962,Nominatim
744,9754,"CHADPUR GENERAL STORE,188/1/C,KAKOLI ROAD,MIDDLE PAIKPARA,MUKTI HOUSING","CHADPUR GENERAL STORE,188/1/C,KAKOLI ROAD,MIDDLE PAIKPARA,MUKTI HOUSING",PAIKPARA MUKTI HOUSING,23.7858083,90.3717024,Nominatim
745,9755,"RD 18,SECTOR 4,UTTARA","RD 18,SECTOR 4,UTTARA","RD 18,SECTOR 4,UTTARA",23.87219697165031,90.39440932037893,Nominatim
746,9756,"SOUTH PAIKPARA,MIRPUR 1","SOUTH PAIKPARA,MIRPUR 1","SOUTH PAIKPARA,MIRPUR 1, Dhaka, Bangladesh",23.80160695,90.35882857655432,Nominatim
747,9758,"52/2, SALIM UDDIN MARKET ROAD, SENPARA PARBATA, AHMED NAGAR","52/2, SALIM UDDIN MARKET ROAD, SENPARA PARBATA, AHMED NAGAR",SENPARA PARBATA AHMED NAGAR,23.80515430502765,90.37101237960734,Nominatim
748,9759,"10 MINUTE SCHOOL , HOSUE B 107 , ROAD 8 , MOHAKHALI DOHS","10 MINUTE SCHOOL , HOSUE B 107 , ROAD 8 , MOHAKHALI DOHS",B 107 ROAD 8 MOHAKHALI DOHS,23.7822461,90.39610985,Nominatim
749,9760,"MILESTONE BOYS HOSTEL , SECTOR 11 ,UTTARA","MILESTONE BOYS HOSTEL , SECTOR 11 ,UTTARA",HOSTEL SECTOR 11 UTTARA,23.8784595,90.393452,Nominatim
752,9763,"TASTY TIBET , RD 2, BLOCK A, BANASREE","TASTY TIBET , RD 2, BLOCK A, BANASREE",2 BLOCK A BANASREE,23.7650771,90.42595431048149,Nominatim
753,9764,"RUSSEL CHAMBER  H 1006 , BEGUM ROKEYA SARANI , WEST SHEWRAPARA","RUSSEL CHAMBER  H 1006 , BEGUM ROKEYA SARANI , WEST SHEWRAPARA",1006 BEGUM ROKEYA SARANI WEST SHEWRAPARA,23.7874133,90.3758293,Nominatim
754,9766,"TAJ NOOR TOWER,H 58,NORTH CIRCULAR RD,DHANMONDI","TAJ NOOR TOWER,H 58,NORTH CIRCULAR RD,DHANMONDI",NORTH CIRCULAR RD DHANMONDI,23.743505346232578,90.38601671210648,Nominatim
755,9767,"THE CAFE RIO LTD(MIRPUR BRANCH),MIRPUR CANTONMENT","THE CAFE RIO LTD(MIRPUR BRANCH),MIRPUR CANTONMENT",BRANCH) MIRPUR CANTONMENT,23.8369616,90.36611105162072,Nominatim
756,9768,"MARIA BAKERY , CULVURT RD , FAKIRAPOOL","MARIA BAKERY , CULVURT RD , FAKIRAPOOL",RD FAKIRAPOOL,23.733007117801744,90.41544050665308,Nominatim
757,9769,"KING AUTOMOBILE , SHYAMOLI , MOHAMMADPUR","KING AUTOMOBILE , SHYAMOLI , MOHAMMADPUR",SHYAMOLI MOHAMMADPUR,23.77323615,90.36562859853451,Nominatim
758,9770,"DENTAL CHAMBER,H 41,RD 27,DHANMONDI","DENTAL CHAMBER,H 41,RD 27,DHANMONDI",41 RD 27 DHANMONDI,23.75404782320564,90.37137815566246,Nominatim
759,9771,"COMPUTER SOURCE , SECTOR 3 , UTTARA","COMPUTER SOURCE , SECTOR 3 , UTTARA",SECTOR 3 UTTARA,23.8641802,90.3961525,Nominatim
760,9772,"CUTSEW TECH LTD , SECTOR 12 , UTTARA","CUTSEW TECH LTD , SECTOR 12 , UTTARA",LTD SECTOR 12 UTTARA,23.8800731,90.3989934,Nominatim
761,9773,"AKBAR GARDEN , H 458/A , SENPARA PARBATA RD , MIRPUR 13","AKBAR GARDEN , H 458/A , SENPARA PARBATA RD , MIRPUR 13",SENPARA PARBATA RD MIRPUR 13,23.80515430502765,90.37101237960734,Nominatim
764,9776,"HITECH MULTICARE HOSPITAL , SOUTHKAFRUL RD , SOUTH KAFRUL ,","HITECH MULTICARE HOSPITAL , SOUTHKAFRUL RD , SOUTH KAFRUL ,",RD SOUTH KAFRUL,23.7868826,90.3858237,Nominatim
765,9777,"JMI OSMAN GONI VILLA , H 28 , CRESCENT RD , DHANMONDI","JMI OSMAN GONI VILLA , H 28 , CRESCENT RD , DHANMONDI",CRESCENT RD DHANMONDI,23.7391974,90.3875104,Nominatim
767,9779,"H 435,RD 45B,TALTOLA,KHILGAON","H 435,RD 45B,TALTOLA,KHILGAON",45B TALTOLA KHILGAON,23.7512986,90.4244569,Nominatim
769,9781,"SKS TOWER, MOHAKHALI","SKS TOWER, MOHAKHALI","SKS TOWER, MOHAKHALI, Dhaka, Bangladesh",23.7781764,90.39670225673432,Nominatim
771,9783,"CSD , RD 2, BANANI DOHS","CSD , RD 2, BANANI DOHS",2 BANANI DOHS,23.794234722576057,90.4003372843106,Nominatim
772,9784,"37/B , ROAD 3, BLOCK D , , BASHUNDHARA R/A","37/B , ROAD 3, BLOCK D , , BASHUNDHARA R/A",BLOCK D BASHUNDHARA R/A,23.8166725,90.42942658076268,Nominatim
773,9785,RECKITT BENCKISER OFFICIAL STORE TEJGAON,RECKITT BENCKISER OFFICIAL STORE TEJGAON,TEJGAON,23.7628204,90.3912992,Nominatim
774,9786,"MATRICHAYA,36/1,AHMED NAGAR ,MIDDLE PAIKPARA,MUKTI HOUSING,AHMED NAGAR","MATRICHAYA,36/1,AHMED NAGAR ,MIDDLE PAIKPARA,MUKTI HOUSING,AHMED NAGAR",MUKTI HOUSING AHMED NAGAR,23.7858083,90.3717024,Nominatim
777,9789,"THE BUFFET EMPIRE , WEST , DHANMONDI","THE BUFFET EMPIRE , WEST , DHANMONDI",EMPIRE WEST DHANMONDI,23.74767875,90.37071785,Nominatim
780,9792,"HARSHITER KHABAR HOTEL,DHAKA,KALLYANPUR,MIRPUR","HARSHITER KHABAR HOTEL,DHAKA,KALLYANPUR,MIRPUR",DHAKA KALLYANPUR MIRPUR,23.79332385,90.34607236500425,Nominatim
781,9793,"NAWABPUR RD , NAWABPUR","NAWABPUR RD , NAWABPUR","NAWABPUR RD , NAWABPUR, Dhaka, Bangladesh",23.718078175662328,90.41140651533809,Nominatim
783,9795,"BANGLADESH SPECIALIZED HSOSPITAL,MIRPUR RD,SHYAMOLI","BANGLADESH SPECIALIZED HSOSPITAL,MIRPUR RD,SHYAMOLI",MIRPUR RD SHYAMOLI,23.78222170015121,90.3505159427737,Nominatim
784,9796,"UTTARA SECTOR 7 PARK , SECTOR 7 , UTTARA","UTTARA SECTOR 7 PARK , SECTOR 7 , UTTARA",SECTOR 7 PARK SECTOR 7 UTTARA,23.8702905,90.39721519839624,Nominatim
785,9797,POPULAR DIAGONSTIC CENTER LTD (UTTARA BRANCH ) SECTOR 4,POPULAR DIAGONSTIC CENTER LTD (UTTARA BRANCH ) SECTOR 4,(UTTARA BRANCH ) SECTOR 4,23.8616922,90.3996824,Nominatim
786,9798,"98 & 99,ROAD 12, BASHUNDHARA R/A","98 & 99,ROAD 12, BASHUNDHARA R/A",BASHUNDHARA R/A,23.8166725,90.42942658076268,Nominatim
788,9800,"SIBL FOUNDATION HOSPITAL , GREEN ROAD , KATHALBAGAN","SIBL FOUNDATION HOSPITAL , GREEN ROAD , KATHALBAGAN","SIBL FOUNDATION HOSPITAL , GREEN ROAD , KATHALBAGAN, Dhaka, Bangladesh",23.7506802,90.3872005,Nominatim
789,9801,"H 57/B , LAKE CIRCUS , KALABAGAN","H 57/B , LAKE CIRCUS , KALABAGAN",LAKE CIRCUS KALABAGAN,23.74748621537525,90.38240596977576,Nominatim
790,9802,"HOUSE 13 , ROAD 5D , SECTOR 11 , UTTARA","HOUSE 13 , ROAD 5D , SECTOR 11 , UTTARA",13 ROAD 5D SECTOR 11 UTTARA,23.88024165,90.39193245,Nominatim
793,9805,"DIG OFFICE , DHAKA RANGE , DHAKA , SEGUNBAGICHA","DIG OFFICE , DHAKA RANGE , DHAKA , SEGUNBAGICHA",DHAKA SEGUNBAGICHA,23.7340321,90.4076745,Nominatim
794,9806,"H 361, RD 23, BLOCK G , BASHUNDHARA R/A","H 361, RD 23, BLOCK G , BASHUNDHARA R/A",BASHUNDHARA R/A,23.8166725,90.42942658076268,Nominatim
795,9807,"KOLMITOLA 18,SECTOR 18,UTTARA","KOLMITOLA 18,SECTOR 18,UTTARA",18 SECTOR 18 UTTARA,23.8580646,90.3618794,Nominatim
796,9808,"H 11,RD 62,GULSHAN 2","H 11,RD 62,GULSHAN 2","H 11,RD 62,GULSHAN 2",23.80042047058429,90.40964436373056,Nominatim
797,9809,"M A SATTAR , H 16 , RD 2 , PC CULTURE HOUSING SOCIETY , MOHAMMADPUR","M A SATTAR , H 16 , RD 2 , PC CULTURE HOUSING SOCIETY , MOHAMMADPUR",2 PC CULTURE HOUSING SOCIETY MOHAMMADPUR,23.77221031511343,90.36433941941824,Nominatim
798,9810,"RAYERBAG BUS STOP,DHAKA CHITTAGONG HIGHWAY","RAYERBAG BUS STOP,DHAKA CHITTAGONG HIGHWAY","RAYERBAG BUS STOP,DHAKA CHITTAGONG HIGHWAY, Dhaka, Bangladesh",23.699431,90.457022,Nominatim
801,9813,"10/7,IQBAL ROAD,MOHAMMADPUR,DHAKA 1207","10/7,IQBAL ROAD,MOHAMMADPUR,DHAKA 1207","10/7,IQBAL ROAD,MOHAMMADPUR,DHAKA 1207, Dhaka, Bangladesh",23.7613077,90.369387,Nominatim
802,9814,"70/D , DOLPHIN GOLI, DHANMONDI","70/D , DOLPHIN GOLI, DHANMONDI","70/D , DOLPHIN GOLI, DHANMONDI, Dhaka, Bangladesh",23.75066399794629,90.3795530339655,Nominatim
804,9816,"CHANGEMAKER , RESIDENTIAL AREA , DHANMONDI","CHANGEMAKER , RESIDENTIAL AREA , DHANMONDI",RESIDENTIAL AREA DHANMONDI,23.7401262,90.3922751,Nominatim
805,9817,"UNITED INTERNATIONAL UNIVERSITY MAIN CAMPUS PLAYGROUND , VATARA BRIDGE","UNITED INTERNATIONAL UNIVERSITY MAIN CAMPUS PLAYGROUND , VATARA BRIDGE",VATARA BRIDGE,23.7998305,90.44548495,Nominatim
806,9818,"S H LIGHT HOUSE,NAYA PALTAN","S H LIGHT HOUSE,NAYA PALTAN",NAYA PALTAN,23.73637127503201,90.4138303058539,Nominatim
807,9819,"THE BLACK EAGLE , SARULIA , DEMRA","THE BLACK EAGLE , SARULIA , DEMRA",SARULIA DEMRA,23.709240907340835,90.50119971394096,Nominatim
809,9821,"EBL TOWER EASTERN BANK TOWER , GULSHAN AVENUE , DAKKHIN BADDA , GULSHAN","EBL TOWER EASTERN BANK TOWER , GULSHAN AVENUE , DAKKHIN BADDA , GULSHAN","EBL TOWER EASTERN BANK TOWER , GULSHAN AVENUE , DAKKHIN BADDA , GULSHAN, Dhaka, Bangladesh",23.78714475,90.41710572217428,Nominatim
810,9822,"fast tech bd , green road , panthapath","fast tech bd , green road , panthapath",tech bd green road panthapath,23.7478541,90.3859313,Nominatim
811,9823,"NAKHALPARA COMMUNITY CENTER , EAST NAKHALPARA RD , EAST NAKHALPARA","NAKHALPARA COMMUNITY CENTER , EAST NAKHALPARA RD , EAST NAKHALPARA","NAKHALPARA COMMUNITY CENTER , EAST NAKHALPARA RD , EAST NAKHALPARA, Dhaka, Bangladesh",23.7707821,90.3973351,Nominatim
812,9824,"AGRANI BANK LTD RD 1, MOHAKHALI","AGRANI BANK LTD RD 1, MOHAKHALI",BANK LTD RD 1 MOHAKHALI,23.7804189,90.4063538,Nominatim
813,9825,"KISHOLOY GIRLS SCHOOL , TAJMAHAL RD , MOHAMMADPUR","KISHOLOY GIRLS SCHOOL , TAJMAHAL RD , MOHAMMADPUR",TAJMAHAL RD MOHAMMADPUR,23.763331483363903,90.36220813542982,Nominatim
815,9827,"DIN MOHAMMAD COLONY JAME MASJID,SHAHID SARANI,DHAKA CANTONMENT","DIN MOHAMMAD COLONY JAME MASJID,SHAHID SARANI,DHAKA CANTONMENT",SARANI DHAKA CANTONMENT,23.83821489287308,90.35849109867222,Nominatim
816,9828,"15/3, MIRERTEK ROAD , WIRELESS , MOGBAZAR","15/3, MIRERTEK ROAD , WIRELESS , MOGBAZAR","15/3, MIRERTEK ROAD , WIRELESS , MOGBAZAR, Dhaka, Bangladesh",23.7558558,90.4133814,Nominatim
817,9829,"HOLIDAY VILLA GRAM , GULSHAN 1 , GULSHAN","HOLIDAY VILLA GRAM , GULSHAN 1 , GULSHAN",GRAM GULSHAN 1 GULSHAN,23.7942863,90.4143105,Nominatim
820,9832,"HANSA,SECTOR 9,UTTARA","HANSA,SECTOR 9,UTTARA","HANSA,SECTOR 9,UTTARA, Dhaka, Bangladesh",23.8768113,90.4005759,Nominatim
821,9833,"BASE SCHOOL , RD 15/A , DHANMONDI","BASE SCHOOL , RD 15/A , DHANMONDI",RD 15/A DHANMONDI,23.753917568953728,90.37321529498166,Nominatim
822,9834,"DHANMONDI DB FAITH TOUCH , TALABAG , JIGATOLA","DHANMONDI DB FAITH TOUCH , TALABAG , JIGATOLA",JIGATOLA,23.7390073,90.3710009,Nominatim
823,9836,"24/14,BLOCK C,TAJMAHAL ROAD,MOHAMMADPUR","24/14,BLOCK C,TAJMAHAL ROAD,MOHAMMADPUR",24/14 BLOCK C TAJMAHAL ROAD MOHAMMADPUR,23.76361295,90.35923305241984,Nominatim
824,9837,"RD 7,BLOCK C,BASHUNDHARA R/A","RD 7,BLOCK C,BASHUNDHARA R/A",BLOCK C BASHUNDHARA R/A,23.8166725,90.42942658076268,Nominatim
825,9838,"SIDDIQ SORENTU , 289, 290, 290/1 , 8/A ,WEST DHANMONDI","SIDDIQ SORENTU , 289, 290, 290/1 , 8/A ,WEST DHANMONDI",290/1 8/A WEST DHANMONDI,23.74353385,90.37188255,Nominatim
826,9839,"BASHABO TEMPU STAND , BANK POLLI ROAD , MODDHO BASHABO , SHAHJAHANPUR","BASHABO TEMPU STAND , BANK POLLI ROAD , MODDHO BASHABO , SHAHJAHANPUR",BASHABO SHAHJAHANPUR,23.7403862,90.4326774,Nominatim
827,9840,"SHANKAR BUS STAND , SAT MASJID RD , DHANMONDI","SHANKAR BUS STAND , SAT MASJID RD , DHANMONDI",MASJID RD DHANMONDI,23.7353531,90.3847341,Nominatim
829,9842,"AB BANK LIMITED,DARUS SALAM MAIN ROAD,SECTION 1,MIRPUR,DHAKA","AB BANK LIMITED,DARUS SALAM MAIN ROAD,SECTION 1,MIRPUR,DHAKA",MAIN ROAD SECTION 1 MIRPUR DHAKA,23.806456704734217,90.3658482325456,Nominatim
830,9843,"PASSPORT OFFICE RD , AGARGAON","PASSPORT OFFICE RD , AGARGAON","PASSPORT OFFICE RD , AGARGAON, Dhaka, Bangladesh",23.777624154396985,90.37826693906912,Nominatim
831,9844,"A-S-S AUTOMATIC SEWING SYSTEMS BANGLADESH LTD , SECTOR 9 , UTTARA","A-S-S AUTOMATIC SEWING SYSTEMS BANGLADESH LTD , SECTOR 9 , UTTARA",LTD SECTOR 9 UTTARA,23.8753807,90.3995838,Nominatim
832,9845,"SARAK BHABAN RHD HEAD OFFICE,INDUSTRIAL AREA,TEJGAON","SARAK BHABAN RHD HEAD OFFICE,INDUSTRIAL AREA,TEJGAON",HEAD OFFICE INDUSTRIAL AREA TEJGAON,23.7642443,90.40840191838132,Nominatim
833,9846,"STAR KABAB HOTEL , RD 2 , DHANMONDI","STAR KABAB HOTEL , RD 2 , DHANMONDI",RD 2 DHANMONDI,23.7567367,90.3615861,Nominatim
835,9848,"DCC JAMUNA , JAMUNA FUTURE PARK KURIL","DCC JAMUNA , JAMUNA FUTURE PARK KURIL",JAMUNA JAMUNA FUTURE PARK KURIL,23.8135723,90.4240237678542,Nominatim
837,9850,"INTERNATIONAL TERMINAL , NEW AIRPORT ROAD , KURMITOLA , SECTOR 2","INTERNATIONAL TERMINAL , NEW AIRPORT ROAD , KURMITOLA , SECTOR 2",NEW AIRPORT ROAD KURMITOLA SECTOR 2,23.83988669419721,90.41726329074338,Nominatim
838,9851,"EASTERN PANTHAGREEN , BUILDING 4 , 73 , GREEN RD","EASTERN PANTHAGREEN , BUILDING 4 , 73 , GREEN RD",EASTERN PANTHAGREEN BUILDING 4 73 GREEN RD,23.75310745,90.38944407414184,Nominatim
841,9854,"WHITE DENTAL CARE, 3 RD 10 , MOFIZBAGH HOUSING , ADABAR","WHITE DENTAL CARE, 3 RD 10 , MOFIZBAGH HOUSING , ADABAR","WHITE DENTAL CARE, 3 RD 10 , MOFIZBAGH HOUSING , ADABAR, Dhaka, Bangladesh",23.7693432,90.3562541,Nominatim
842,9855,"dhaka airport railway station , dhaka mymensingh highway , kurmitola","dhaka airport railway station , dhaka mymensingh highway , kurmitola",kurmitola,23.8251851,90.4057949,Nominatim
843,9856,"house 15 , road 15, sector 14, uttara","house 15 , road 15, sector 14, uttara","house 15 , road 15, sector 14, uttara",23.86596009920053,90.39516200235664,Nominatim
844,9857,"SPICY,BEGUM ROKEYA SHARANI,SENPARA PARBATA,PURBA KAZIPARA","SPICY,BEGUM ROKEYA SHARANI,SENPARA PARBATA,PURBA KAZIPARA",SENPARA PARBATA PURBA KAZIPARA,23.80515430502765,90.37101237960734,Nominatim
847,9860,"H 67 , ATISH DIPANKAR RD , BASABO","H 67 , ATISH DIPANKAR RD , BASABO","H 67 , ATISH DIPANKAR RD , BASABO, Dhaka, Bangladesh",23.725935416441366,90.42869218029216,Nominatim
848,9861,"BARDEM GENERAL HOSPITAL 2,FOR WOMEN AND CHILDREN,SEGUNBAGICHA RD,SEGUNBAGICHA","BARDEM GENERAL HOSPITAL 2,FOR WOMEN AND CHILDREN,SEGUNBAGICHA RD,SEGUNBAGICHA",SEGUNBAGICHA RD SEGUNBAGICHA,23.7330446,90.4080986,Nominatim
849,9862,"TRANSCOM DIGITAL , MIRHAJIRBAG ROAD , GOPIBAG , DAYAGANJ","TRANSCOM DIGITAL , MIRHAJIRBAG ROAD , GOPIBAG , DAYAGANJ",MIRHAJIRBAG ROAD GOPIBAG DAYAGANJ,23.7078696,90.4290326,Nominatim
851,9864,Gupipara road. Dakkhin badda. Gulshan,Gupipara road. Dakkhin badda. Gulshan,Gupipara road. Dakkhin badda. Gulshan,23.780583,90.4183252,Nominatim
853,9866,"MIDDLE BADDA OVERBRIDGE , GULSHAN","MIDDLE BADDA OVERBRIDGE , GULSHAN","MIDDLE BADDA OVERBRIDGE , GULSHAN, Dhaka, Bangladesh",23.77790465,90.42571905,Nominatim
854,9867,"BASHIR ENTERPRISE,BIR UTTAM AK KHANDAKER ROAD,WIRELESS GATE,MOHAKHALI","BASHIR ENTERPRISE,BIR UTTAM AK KHANDAKER ROAD,WIRELESS GATE,MOHAKHALI",ROAD WIRELESS GATE MOHAKHALI,23.78100007878564,90.40687236672623,Nominatim
855,9868,"PBI HEADQUARTERS , SURMA HERITAGE , RESIDENTIAL AREA , DHANMONDI","PBI HEADQUARTERS , SURMA HERITAGE , RESIDENTIAL AREA , DHANMONDI",HERITAGE RESIDENTIAL AREA DHANMONDI,23.7427337,90.38192665,Nominatim
856,9869,"LUMINOUS LABS , DOHS , MIRPUR","LUMINOUS LABS , DOHS , MIRPUR",DOHS MIRPUR,23.8280944548888,90.37731963980114,Nominatim
857,9870,"ALLIANCE FRANCAISE DE DHAKA , GULSHAN 1, GULSHAN","ALLIANCE FRANCAISE DE DHAKA , GULSHAN 1, GULSHAN",DHAKA GULSHAN 1 GULSHAN,23.787023576886966,90.42350530746378,Nominatim
858,9871,"IBN SINA SPECIALIZED HOSPITAL RESIDENTIAL AREA , DHANMONDI","IBN SINA SPECIALIZED HOSPITAL RESIDENTIAL AREA , DHANMONDI",RESIDENTIAL AREA DHANMONDI,23.7401262,90.3922751,Nominatim
860,9873,"DR. M.R KHAN SHISHU HOSPITAL AND INSTITUTE OF CHILD HEALTH , 6 , SHISHU HOSPITAL ROAD , SENPARA PARBATA , BOROBAGH","DR. M.R KHAN SHISHU HOSPITAL AND INSTITUTE OF CHILD HEALTH , 6 , SHISHU HOSPITAL ROAD , SENPARA PARBATA , BOROBAGH",SENPARA PARBATA BOROBAGH,23.80515430502765,90.37101237960734,Nominatim
861,9874,"DELTA HOSPITAL LIMITED , ABDULLAH PUR ATE PARA ROAD , SECTOR -08 , UTTARA","DELTA HOSPITAL LIMITED , ABDULLAH PUR ATE PARA ROAD , SECTOR -08 , UTTARA",ROAD SECTOR 08 UTTARA,23.863975275687736,90.39595065428018,Nominatim
862,9875,"TALTOLA MARKET TALTOLA MARKET RD , KHILGAON","TALTOLA MARKET TALTOLA MARKET RD , KHILGAON","TALTOLA MARKET TALTOLA MARKET RD , KHILGAON, Dhaka, Bangladesh",23.75211475,90.4240381,Nominatim
863,9876,"MILI SUPER MARKET,LALSHARAI RD,KACHUKHET,MIRPUR 14","MILI SUPER MARKET,LALSHARAI RD,KACHUKHET,MIRPUR 14",MIRPUR 14,23.7986707,90.3871115,Nominatim
864,9877,"RD 17 , SECTOR 14 , UTTARA","RD 17 , SECTOR 14 , UTTARA","RD 17 , SECTOR 14 , UTTARA, Dhaka, Bangladesh",23.8715722,90.38576845,Nominatim
865,9878,"CHAYA NEER , H 105 , RD 2/A , NIKETON","CHAYA NEER , H 105 , RD 2/A , NIKETON",2/A NIKETON,23.77650984290825,90.4119581556168,Nominatim
866,9879,"FAST GLOBAL SERVICE,BLOCK F,BANANI","FAST GLOBAL SERVICE,BLOCK F,BANANI",BLOCK F BANANI,23.7876855,90.4013312,Nominatim
867,9880,"HOUSE 189 , ROAD 6 , BLOCK J , BASHUNDHARA R/A","HOUSE 189 , ROAD 6 , BLOCK J , BASHUNDHARA R/A",BASHUNDHARA R/A,23.8166725,90.42942658076268,Nominatim
868,9881,"HSBC BANK LIMITED,BIR UTTAM MIR SHAWKAT SARAK,SHANTA WESTERN TOWER,TEJGAON INDUSTRIAL AREA","HSBC BANK LIMITED,BIR UTTAM MIR SHAWKAT SARAK,SHANTA WESTERN TOWER,TEJGAON INDUSTRIAL AREA",SHANTA WESTERN TOWER TEJGAON INDUSTRIAL AREA,23.76906725,90.40473212671588,Nominatim
869,9882,"SARKAR PHARMACY  , POST OFFICE ROAD , GULSHAN","SARKAR PHARMACY  , POST OFFICE ROAD , GULSHAN","SARKAR PHARMACY  , POST OFFICE ROAD , GULSHAN, Dhaka, Bangladesh",23.7768748,90.4262141,Nominatim
870,9883,"ICT TOWER,AGARGAON MIRPUR","ICT TOWER,AGARGAON MIRPUR",AGARGAON MIRPUR,23.79416924800666,90.38800214950996,Nominatim
871,9884,"DOMINOS PIZZA,SOUTH BADDA","DOMINOS PIZZA,SOUTH BADDA",SOUTH BADDA,23.7751646,90.4225629,Nominatim
872,9885,"BAITUL ATIK JAME MASJID COMPLEX.KAIYUM KHANDAKAR RD,WEST TEJKUNI PARA,TEJGAON","BAITUL ATIK JAME MASJID COMPLEX.KAIYUM KHANDAKAR RD,WEST TEJKUNI PARA,TEJGAON",PARA TEJGAON,23.764509270313862,90.38925419128483,Nominatim
873,9886,"AMTOLI JAME MASJID , NEW AIRPORT RD , MOHAKHALI","AMTOLI JAME MASJID , NEW AIRPORT RD , MOHAKHALI","AMTOLI JAME MASJID , NEW AIRPORT RD , MOHAKHALI, Dhaka, Bangladesh",23.7851699,90.3992744,Nominatim
874,9887,"NOTRE DAME COLLEGE,ARAMBAG","NOTRE DAME COLLEGE,ARAMBAG","NOTRE DAME COLLEGE,ARAMBAG, Dhaka, Bangladesh",23.7306042,90.4211348,Nominatim
875,9888,"89,DINANATH SEN ROAD,GOPIBAG,SUTRAPUR","89,DINANATH SEN ROAD,GOPIBAG,SUTRAPUR",ROAD GOPIBAG SUTRAPUR,23.7135948,90.4122812,Nominatim
876,9889,"NAMAPARA,BASHUNDHARA R/A","NAMAPARA,BASHUNDHARA R/A",BASHUNDHARA R/A,23.8166725,90.42942658076268,Nominatim
878,9891,"ALOK HOSPITAL RD , RD 2 , BLOCK B , MIRPUR 10","ALOK HOSPITAL RD , RD 2 , BLOCK B , MIRPUR 10",BLOCK B MIRPUR 10,23.8068955,90.37248182109136,Nominatim
879,9892,"H 25 , RD 2, NIKUNJA 2","H 25 , RD 2, NIKUNJA 2","H 25 , RD 2, NIKUNJA 2",23.82896737611326,90.41786435958996,Nominatim
880,9893,"29/5, BLOCK B  , BABOR ROAD , MOHAMMADPUR","29/5, BLOCK B  , BABOR ROAD , MOHAMMADPUR",29/5 BLOCK B BABOR ROAD MOHAMMADPUR,23.7702482,90.36380873321428,Nominatim
881,9894,"TOWER 71,(HOMES 71 LTD),NAMAPARA,DHAKA CANTONMENT","TOWER 71,(HOMES 71 LTD),NAMAPARA,DHAKA CANTONMENT",DHAKA CANTONMENT,23.81583815,90.41049407160516,Nominatim
882,9895,"SHAHEENBAG KENDRIO BORO MASJID , ARJOTPARA , MOHAKHALI","SHAHEENBAG KENDRIO BORO MASJID , ARJOTPARA , MOHAKHALI",MASJID ARJOTPARA MOHAKHALI,23.777294,90.3971913,Nominatim
883,9896,"BKASH CENTRE , H 19 , RD 4 , MIRPUR 13","BKASH CENTRE , H 19 , RD 4 , MIRPUR 13",H 19 RD 4 MIRPUR 13,23.816843829205048,90.36874833594024,Nominatim
887,9900,"HOUSE 18 , ROAD 16 , BLOCK B , BANANI DHAKA","HOUSE 18 , ROAD 16 , BLOCK B , BANANI DHAKA",BLOCK B BANANI DHAKA,23.796359350000003,90.4024991132454,Nominatim
888,9901,"sajib fashion wear ltd , gulshan 2","sajib fashion wear ltd , gulshan 2",ltd gulshan 2,23.7953239,90.4134626,Nominatim
889,9902,"PERFUME , SECTOR 6 , UTTARA","PERFUME , SECTOR 6 , UTTARA",SECTOR 6 UTTARA,23.8728982,90.4030022,Nominatim
891,9904,"ROAD 31 , PALLABI 2ND PHASE ( EASTERN HOUSING ) , MIRPUR","ROAD 31 , PALLABI 2ND PHASE ( EASTERN HOUSING ) , MIRPUR",PALLABI 2ND PHASE ( EASTERN HOUSING ) MIRPUR,23.8305833,90.3507845,Nominatim
892,9905,"BANGLASHOPPERS.COM,ROAD 13E,BANANI","BANGLASHOPPERS.COM,ROAD 13E,BANANI",ROAD 13E BANANI,23.791333683685775,90.40776406339744,Nominatim
893,9906,"JAPAN GARDEN CITY BIDG NO. 10 , ROAD 1, MOHAMMADI HOUSING SOCIETY ,  MOHAMMADPUR","JAPAN GARDEN CITY BIDG NO. 10 , ROAD 1, MOHAMMADI HOUSING SOCIETY ,  MOHAMMADPUR",HOUSING SOCIETY MOHAMMADPUR,23.7697872,90.36297351865782,Nominatim
894,9907,"AIUB CAMPUS,KURATALI,KHILKHET,BASHUNDHARA R/A","AIUB CAMPUS,KURATALI,KHILKHET,BASHUNDHARA R/A",BASHUNDHARA R/A,23.8166725,90.42942658076268,Nominatim
895,9908,"SECRERTARY APARTMENT COMPLEX,ESKATON GARDEN ROAD,RAMNA","SECRERTARY APARTMENT COMPLEX,ESKATON GARDEN ROAD,RAMNA",COMPLEX ESKATON GARDEN ROAD RAMNA,23.740302,90.3930013,Nominatim
898,9911,"BOSILA WEST DHANMONDI JAME MASJID , MOHAMMADPUR","BOSILA WEST DHANMONDI JAME MASJID , MOHAMMADPUR",JAME MASJID MOHAMMADPUR,23.75906825,90.36377091806956,Nominatim
899,9912,"BACKBENCHERS, MOHAMMADPUR RING RD,JANATA HOUSING","BACKBENCHERS, MOHAMMADPUR RING RD,JANATA HOUSING",RD JANATA HOUSING,23.76958838491459,90.35777687618564,Nominatim
900,9913,"STHAPOTTO BHABAN , M I S T , MIRPUR CANTONMENT","STHAPOTTO BHABAN , M I S T , MIRPUR CANTONMENT",T MIRPUR CANTONMENT,23.8389781,90.359597,Nominatim
901,9915,"HOTEL ASOR , TOYENBEE CIRCULAR RD , FAKIRAPOOL","HOTEL ASOR , TOYENBEE CIRCULAR RD , FAKIRAPOOL",CIRCULAR RD FAKIRAPOOL,23.7221011,90.4165215,Nominatim
903,9917,"AL MAHMUD FILLING STATION , DARUS SALAM RD DARUS SALAM","AL MAHMUD FILLING STATION , DARUS SALAM RD DARUS SALAM",FILLING STATION DARUS SALAM RD DARUS SALAM,23.7827454,90.3466034,Nominatim
905,9919,"AL-HERA BUILDING SYSTEM , RAYERBAG, SONIR AKHRA","AL-HERA BUILDING SYSTEM , RAYERBAG, SONIR AKHRA",RAYERBAG SONIR AKHRA,23.70354095,90.4494937426856,Nominatim
906,9920,"IMA DENTAL CARE,SECTOR 13,UTTARA","IMA DENTAL CARE,SECTOR 13,UTTARA",CARE SECTOR 13 UTTARA,23.8954427,90.3771557,Nominatim
907,9921,"RD 20, MOHAKHALI DOHS","RD 20, MOHAKHALI DOHS","RD 20, MOHAKHALI DOHS, Dhaka, Bangladesh",23.7813225,90.3946711,Nominatim
908,9922,"DHAKA TECHNICAL BUS STOP , BEGUM ROKEYA SARANI , KAZIPARA","DHAKA TECHNICAL BUS STOP , BEGUM ROKEYA SARANI , KAZIPARA",BEGUM ROKEYA SARANI KAZIPARA,23.78650874005394,90.37730625458975,Nominatim
909,9923,"TRISHA'S EXTENSION & BEAUTY ZONE , HOUSE 140 , ROAD 3 , BLOCK A, NIKETON","TRISHA'S EXTENSION & BEAUTY ZONE , HOUSE 140 , ROAD 3 , BLOCK A, NIKETON",ROAD 3 BLOCK A NIKETON,23.775148134886127,90.41209876349808,Nominatim
910,9924,TENEMENT 2 H 301/A RD 6 BLOCK E BASHUNDHARA R/A,TENEMENT 2 H 301/A RD 6 BLOCK E BASHUNDHARA R/A,BLOCK E BASHUNDHARA R/A,23.8166725,90.42942658076268,Nominatim
911,9925,"MOSTAFA GARDEN,HOUSE 245,ROAD 6C,BLOCK B,BASHUNDHARA R/A","MOSTAFA GARDEN,HOUSE 245,ROAD 6C,BLOCK B,BASHUNDHARA R/A",ROAD 6C BLOCK B BASHUNDHARA R/A,23.8144833,90.42684135,Nominatim
912,9926,"RD 25 A, BANANI","RD 25 A, BANANI","RD 25 A, BANANI, Dhaka, Bangladesh",23.79743874068649,90.40406935180565,Nominatim
913,9927,SAYEDABAD BUS STAND,SAYEDABAD BUS STAND,"SAYEDABAD BUS STAND, Dhaka, Bangladesh",23.7155268,90.4293093,Nominatim
914,9928,"H 39/B, LICHU BAGAN RD , JOAR SHAHARA","H 39/B, LICHU BAGAN RD , JOAR SHAHARA",RD JOAR SHAHARA,23.815687206080465,90.41690314859932,Nominatim
915,9929,"asgar ali hospital , distillery rd , gandaria","asgar ali hospital , distillery rd , gandaria",rd gandaria,23.7141096,90.4221641,Nominatim
916,9930,"R.K FASHION , H 67 , NAYA PALTAN RD , NAYA PALTAN","R.K FASHION , H 67 , NAYA PALTAN RD , NAYA PALTAN",H 67 NAYA PALTAN RD NAYA PALTAN,23.73637127503201,90.4138303058539,Nominatim
917,9931,"BIJOY RAKEEN CITY A6,DOG SQUAD ROAD,MIRPUR 15,MIRPUR","BIJOY RAKEEN CITY A6,DOG SQUAD ROAD,MIRPUR 15,MIRPUR",A6 DOG SQUAD ROAD MIRPUR 15 MIRPUR,23.804187158733345,90.38222412939068,Nominatim
918,9932,"SM ENGINEERING NAMAPARA , KHILKHET","SM ENGINEERING NAMAPARA , KHILKHET",NAMAPARA KHILKHET,23.8324001,90.4322006,Nominatim
919,9933,"GAZIPUR POLICE LINE CANTEEN , JOYDEBPUR RD , 1702","GAZIPUR POLICE LINE CANTEEN , JOYDEBPUR RD , 1702",JOYDEBPUR RD 1702,23.7142135,90.4069501,Nominatim
920,9934,"KHAJA HOTEL,MIRPUR RD,DARUS SALAM","KHAJA HOTEL,MIRPUR RD,DARUS SALAM",MIRPUR RD DARUS SALAM,23.78222170015121,90.3505159427737,Nominatim
921,9935,"531, MAGIC BRICKS , F BLOCK RANIA AVENUE , BLOCK I , BASHUNDHARA R/A","531, MAGIC BRICKS , F BLOCK RANIA AVENUE , BLOCK I , BASHUNDHARA R/A",BLOCK I BASHUNDHARA R/A,23.8166725,90.42942658076268,Nominatim
922,9936,"CAFE 60 FIT RESTAURANT , 60 FEET , MUKTI HOUSING DOKKHIN MONIPUR","CAFE 60 FIT RESTAURANT , 60 FEET , MUKTI HOUSING DOKKHIN MONIPUR",MONIPUR,23.8007553,90.366653,Nominatim
923,9937,"BANGLADESH TARIFF COMMISSION PIONEER RD , SEGUNBAGICHA","BANGLADESH TARIFF COMMISSION PIONEER RD , SEGUNBAGICHA",PIONEER RD SEGUNBAGICHA,23.73609263376825,90.4070183056308,Nominatim
926,9940,AIRPORT RENT A CAR SERVICE HAZRAT SHAHJALAL INETRNATIONAL AIRPORT KURMITOLA,AIRPORT RENT A CAR SERVICE HAZRAT SHAHJALAL INETRNATIONAL AIRPORT KURMITOLA,AIRPORT KURMITOLA,23.8191146,90.4097954,Nominatim
928,9942,"HATIL FURNITURE,BANASREE,BLOCK G","HATIL FURNITURE,BANASREE,BLOCK G",BANASREE BLOCK G,23.7620563204356,90.43066062467088,Nominatim
930,9944,"OXFORD REFRIGERATION , H 41/7, CULVERT RD , FAKIRAPOOL","OXFORD REFRIGERATION , H 41/7, CULVERT RD , FAKIRAPOOL",41/7 CULVERT RD FAKIRAPOOL,23.729859937402345,90.4185809023367,Nominatim
932,9946,"RADIANT FASHION , H 4 , RD 3 , PC CULTURE HOUSING SOCIETY , MOHAMMADPUR","RADIANT FASHION , H 4 , RD 3 , PC CULTURE HOUSING SOCIETY , MOHAMMADPUR",RD 3 PC CULTURE HOUSING SOCIETY MOHAMMADPUR,23.77221031511343,90.36433941941824,Nominatim
933,9947,"UTTARA UNIVERSITY , RABINDRA SARANI , SECTOR 7 , UTTARA MODEL TOWER","UTTARA UNIVERSITY , RABINDRA SARANI , SECTOR 7 , UTTARA MODEL TOWER",SECTOR 7 UTTARA MODEL TOWER,23.8622809,90.3989622,Nominatim
934,9948,"ANONDO NIBASH , H 124 , RD 2 , MERUL BADDA","ANONDO NIBASH , H 124 , RD 2 , MERUL BADDA",2 MERUL BADDA,23.7728555,90.4297339,Nominatim
935,9949,"MEYOR MOHAMMAD SAYED KHOKON CENTER , DISTILARY ROAD , GOPIBAG , DAYAGANJ","MEYOR MOHAMMAD SAYED KHOKON CENTER , DISTILARY ROAD , GOPIBAG , DAYAGANJ",DISTILARY ROAD GOPIBAG DAYAGANJ,23.70587088314683,90.42389309504928,Nominatim
936,9950,"EASTERN CIRCUIT,H 30,CIRCUIT HOUSE RD,KAKRAIL","EASTERN CIRCUIT,H 30,CIRCUIT HOUSE RD,KAKRAIL",CIRCUIT HOUSE RD KAKRAIL,23.740203900516317,90.4091602457229,Nominatim
937,9951,"H 1/11 , MIRPUR RD , LALMATIA","H 1/11 , MIRPUR RD , LALMATIA","H 1/11 , MIRPUR RD , LALMATIA, Dhaka, Bangladesh",23.74537103732329,90.3817467098132,Nominatim
938,9952,"JUSTICE SHAHBUDDIN AHMED PARK , GULSHAN 2 , GULSHAN","JUSTICE SHAHBUDDIN AHMED PARK , GULSHAN 2 , GULSHAN",AHMED PARK GULSHAN 2 GULSHAN,23.798163,90.41492077219812,Nominatim
939,9953,"LABAID CANCER HSOPITAL & SUPER SPECIALITY CENTRE , ,KATHALBAGAN , GREEN ROAD","LABAID CANCER HSOPITAL & SUPER SPECIALITY CENTRE , ,KATHALBAGAN , GREEN ROAD",KATHALBAGAN GREEN ROAD,23.745800719454447,90.38521101230953,Nominatim
940,9954,"BEGUM ROKEYA SHARANI,HARUNABAD,MIRPUR 12","BEGUM ROKEYA SHARANI,HARUNABAD,MIRPUR 12",MIRPUR 12,23.82510435,90.3706719356546,Nominatim
942,9956,"RD 19 , SECTOR 14 , UTTARA","RD 19 , SECTOR 14 , UTTARA","RD 19 , SECTOR 14 , UTTARA, Dhaka, Bangladesh",23.868825938969387,90.39037376708112,Nominatim
943,9957,"HOUSE 18 , ROAD 7 , SECTOR 5 , UTTARA","HOUSE 18 , ROAD 7 , SECTOR 5 , UTTARA","HOUSE 18 , ROAD 7 , SECTOR 5 , UTTARA, Dhaka, Bangladesh",23.86463304747461,90.3957625015851,Nominatim
944,9958,"JAMIYA DERACHATUL MADRASA,H54,CENTRAL RD,DHANMONDI","JAMIYA DERACHATUL MADRASA,H54,CENTRAL RD,DHANMONDI",CENTRAL RD DHANMONDI,23.7416423,90.385489,Nominatim
947,9961,"AK PLAZA,SONARGAON JANAPATH ROAD,SECTOR 7,UTTARA","AK PLAZA,SONARGAON JANAPATH ROAD,SECTOR 7,UTTARA",ROAD SECTOR 7 UTTARA,23.862552,90.4010024250947,Nominatim
948,9962,"MASHIK ADARSHO NARI , MONTHLY ADARSHA NARI , NAYA PALTAN","MASHIK ADARSHO NARI , MONTHLY ADARSHA NARI , NAYA PALTAN",NAYA PALTAN,23.73637127503201,90.4138303058539,Nominatim
949,9963,"GABTOLI LANDING STATION , AMINBAZAR BRIDGE","GABTOLI LANDING STATION , AMINBAZAR BRIDGE","GABTOLI LANDING STATION , AMINBAZAR BRIDGE, Dhaka, Bangladesh",23.7834038,90.3342533,Nominatim
950,9964,"BRTA,MIRPUR 10","BRTA,MIRPUR 10",MIRPUR 10,23.8083649,90.3682614,Nominatim
951,9965,"INDO BANGLA CARDIOVASCULAR CONSULTATION CENTER,H 12/2,4/A,JIGATALA","INDO BANGLA CARDIOVASCULAR CONSULTATION CENTER,H 12/2,4/A,JIGATALA",4/A JIGATALA,23.738107837086144,90.37230635142558,Nominatim
954,9968,"RD 3,BLOCK C,BASHUNDHARA R/A","RD 3,BLOCK C,BASHUNDHARA R/A",BLOCK C BASHUNDHARA R/A,23.8166725,90.42942658076268,Nominatim
955,9969,"BISMILLAH SWEETS,SHA 1/2,DIT RD,MIDDLE BADDA","BISMILLAH SWEETS,SHA 1/2,DIT RD,MIDDLE BADDA",1/2 DIT RD MIDDLE BADDA,23.777353527870467,90.42585016118024,Nominatim
956,9970,LASER CHAIN SKIN CENTRE LTD RESIDENTIAL AREA DHANMONDI,LASER CHAIN SKIN CENTRE LTD RESIDENTIAL AREA DHANMONDI,LTD RESIDENTIAL AREA DHANMONDI,23.7412296,90.3826263,Nominatim
957,9972,"FAYDABAD PRIMARY SCHOOL ABDULLAHPUR ATIPARA RD , GOALTEK , DAKSHINKHAN","FAYDABAD PRIMARY SCHOOL ABDULLAHPUR ATIPARA RD , GOALTEK , DAKSHINKHAN",DAKSHINKHAN,23.8604152,90.4268187,Nominatim
958,9973,"DELTA HEALTH CARE , JATRABARI LIMITED , JATRABARI","DELTA HEALTH CARE , JATRABARI LIMITED , JATRABARI",DELTA HEALTH CARE JATRABARI LIMITED JATRABARI,23.69914325,90.4354299,Nominatim
961,9976,"CAFE BAGHDAD RESTORA,ARAMBAG,MOTIJHEEL","CAFE BAGHDAD RESTORA,ARAMBAG,MOTIJHEEL",ARAMBAG MOTIJHEEL,23.7280587,90.4190551,Nominatim
963,9978,"1ST 12 STORIED GOVT. OFFICE BUILDING , PIONEER RD , SEGUNBAGICHA","1ST 12 STORIED GOVT. OFFICE BUILDING , PIONEER RD , SEGUNBAGICHA",PIONEER RD SEGUNBAGICHA,23.73609263376825,90.4070183056308,Nominatim
964,9979,KURIL BISHWA RD BUS STOP,KURIL BISHWA RD BUS STOP,"KURIL BISHWA RD BUS STOP, Dhaka, Bangladesh",23.8213586,90.4188667,Nominatim
965,9980,"BHANDARY GENERAL STORE , SHANTINAGAR RD , SHANTINAGAR","BHANDARY GENERAL STORE , SHANTINAGAR RD , SHANTINAGAR",SHANTINAGAR RD SHANTINAGAR,23.7415661,90.4120606,Nominatim
966,9981,"UNISTAR BD INTERNATIONAL,SECTOR 6,UTTARA","UNISTAR BD INTERNATIONAL,SECTOR 6,UTTARA",INTERNATIONAL SECTOR 6 UTTARA,23.8696127,90.3994471,Nominatim
968,9983,"H 22 , LARMINI ST , WARI","H 22 , LARMINI ST , WARI",LARMINI ST WARI,23.7200701,90.4179931,Nominatim
969,9984,"BLUE BIRIYANI GHOR , PASCHIM JATRABARI","BLUE BIRIYANI GHOR , PASCHIM JATRABARI",PASCHIM JATRABARI,23.7086731,90.42812,Nominatim
971,9986,"SIAM TOWER, H 15 , RD 2, SECTOR 3, UTTARA","SIAM TOWER, H 15 , RD 2, SECTOR 3, UTTARA",H 15 RD 2 SECTOR 3 UTTARA,23.86268738965584,90.39881469609072,Nominatim
972,9987,"YELLOW , GULSHAN AVENUE , DAKKHIN BADDA , GULSHAN","YELLOW , GULSHAN AVENUE , DAKKHIN BADDA , GULSHAN",GULSHAN AVENUE DAKKHIN BADDA GULSHAN,23.776342752675188,90.41635382040342,Nominatim
973,9988,"SHELTECH APARTMENTS , 450 , GREENWAY ROAD , WIRELESS , MOGBAZAR","SHELTECH APARTMENTS , 450 , GREENWAY ROAD , WIRELESS , MOGBAZAR","SHELTECH APARTMENTS , 450 , GREENWAY ROAD , WIRELESS , MOGBAZAR, Dhaka, Bangladesh",23.75158765,90.40821433109652,Nominatim
974,9989,"BREAD & BUTTER,ROAD 8,BLOCK C MIRPUR 12","BREAD & BUTTER,ROAD 8,BLOCK C MIRPUR 12",BLOCK C MIRPUR 12,23.8223197,90.378757,Nominatim
975,9990,"HOTEL SHOWRUPKATHI,TOLARBAG,MIRPUR 1","HOTEL SHOWRUPKATHI,TOLARBAG,MIRPUR 1",TOLARBAG MIRPUR 1,23.79829355,90.35366684080552,Nominatim
977,9992,"HOUSE - 56 , ROAD -02, SECTOR-13 , UTTARA","HOUSE - 56 , ROAD -02, SECTOR-13 , UTTARA",02 SECTOR 13 UTTARA,23.8713405,90.3875569,Nominatim
979,9995,"TRAVELIA TOURISM MARKETPLACE,76/1,ATISH DIPANKAR RD,TITIPARA,KOMLAPUR","TRAVELIA TOURISM MARKETPLACE,76/1,ATISH DIPANKAR RD,TITIPARA,KOMLAPUR",RD TITIPARA KOMLAPUR,23.7295468,90.4262031,Nominatim
981,9997,"11, ROAD 18 , KURMITOLA , SECTOR 5","11, ROAD 18 , KURMITOLA , SECTOR 5",ROAD 18 KURMITOLA SECTOR 5,23.83461703974467,90.41626372117317,Nominatim
982,9998,"H 405, AFTAB UDDIN AHMED RD, BLOCK B , BASHUNDHARA R/A","H 405, AFTAB UDDIN AHMED RD, BLOCK B , BASHUNDHARA R/A",BLOCK B BASHUNDHARA R/A,23.8166725,90.42942658076268,Nominatim
983,9999,"H 366/7, RD 6 , BARIDHARA DOHS","H 366/7, RD 6 , BARIDHARA DOHS",6 BARIDHARA DOHS,23.8131162,90.4131292,Nominatim
985,10001,"INDIRA ROAD , DHANMONDI","INDIRA ROAD , DHANMONDI","INDIRA ROAD , DHANMONDI, Dhaka, Bangladesh",23.755933271953484,90.38316860675756,Nominatim
986,10002,"BHAI BHAI STORE , NOSOR UDDIN RD , MATIKATA","BHAI BHAI STORE , NOSOR UDDIN RD , MATIKATA",RD MATIKATA,23.8196962,90.3936832,Nominatim
987,10003,"CENTRAL HOSPITAL , GREEN ROAD , DHANMONDI","CENTRAL HOSPITAL , GREEN ROAD , DHANMONDI",HOSPITAL GREEN ROAD DHANMONDI,23.7421348,90.3846381,Nominatim
988,10004,"AMBROSIA INFINITY LOUNGE , RESIDENTIAL AREA , DHANMONDI","AMBROSIA INFINITY LOUNGE , RESIDENTIAL AREA , DHANMONDI",RESIDENTIAL AREA DHANMONDI,23.7401262,90.3922751,Nominatim
